stop_id,stop_code,stop_name,stop_desc,stop_lat,stop_lon,zone_id,stop_url
12,12,5TH ST AND MARKET ST,,35.0507,-85.30953,,
17,17,11TH ST AND MARKET ST,,35.04425,-85.30944,,
18,18,12TH ST AND MARKET ST,,35.04235,-85.30907,,
19,19,COWART ST AND MARKET ST,,35.04095,-85.30839,,
21,21,MAIN ST AND MARKET ST,,35.03638,-85.30732,,
22,22,17TH ST AND MARKET ST,,35.03465,-85.30826,,
23,23,19TH ST AND MARKET ST,,35.03276,-85.30864,,
24,24,20TH ST AND MARKET ST,,35.03179,-85.30883,,
25,25,21ST ST AND MARKET ST,,35.03082,-85.30909,,
26,26,25TH ST AND MARKET ST,,35.02755,-85.31066,,
27,27,25TH ST AND MARKET ST,,35.02674,-85.31103,,
28,28,26TH ST AND MARKET ST,,35.02592,-85.31149,,
29,29,ALTON PARK BLVD AND MARKET ST,,35.01932,-85.312,,
30,30,31ST ST AND ALTON PARK BLVD,,35.01753,-85.31293,,
31,31,ALTON PARK BLVD AT RAILROAD CROSSING,,35.01679,-85.31335,,
32,32,33RD ST AND ALTON PARK BLVD,,35.01504,-85.31432,,
33,33,33RD ST AND DELONG ST,,35.0158,-85.31688,,
34,34,33RD ST AND TARLTON AVE,,35.01613,-85.31783,,
35,35,33RD ST AT TEEN CHALLENGE,,35.01652,-85.31893,,
38,38,BROAD ST (LEE HWY) AND GLENVIEW AVE,,35.01714,-85.3226,,
41,41,TENNESSEE AVE AT WALGREENS,,35.01374,-85.32546,,
42,42,37TH ST AND TENNESSEE AVE,,35.01298,-85.32589,,
43,43,TENNESSEE AVE AT SUNTRUST BANK,,35.01143,-85.32729,,
44,44,ST. ELMO BI LO,,35.01063,-85.32582,,
45,45,40TH ST AT BI LO,,35.00819,-85.32635,,
47,47,40TH ST AND TEACHER PL,,35.00813,-85.32422,,
48,48,40TH ST AT SOUTH CHATTANOOGA RECREATION CENTER,,35.00817,-85.32299,,
49,49,PIROLA ST AT POST OFFICE,,35.00865,-85.32134,,
50,50,37TH ST AND PIROLA ST,,35.01059,-85.32031,,
51,51,37TH ST AT CALVIN DONALDSON,,35.01006,-85.31873,,
52,52,37TH ST AND ALTON PARK BLVD,,35.00956,-85.31742,,
53,53,38TH ST AND ALTON PARK BLVD,,35.00848,-85.31789,,
54,54,38TH ST AND OHLS AVE,,35.0076,-85.31637,,
55,55,38TH ST AND CHANDLER AVE,,35.0072,-85.31527,,
56,56,38TH ST AND HIGHLAND AVE,,35.00677,-85.31411,,
57,57,38TH ST AND KIRKLAND AVE,,35.00634,-85.31298,,
58,58,38TH ST AND HUGHES AVE,,35.00591,-85.31185,,
59,59,38TH ST AND CENTRAL AVE,,35.0052,-85.31088,,
60,60,41ST ST AND CENTRAL AVE,,35.00412,-85.31145,,
61,61,CENTRAL AVE AND HOOKER RD,,35.00223,-85.31246,,
62,62,45TH ST AND CENTRAL AVE,,35.00019,-85.31357,,
63,63,47TH ST AND CENTRAL AVE,,34.99761,-85.31484,,
64,64,CENTRAL AVE AT VELSICOL,,34.99459,-85.31653,,
65,65,51ST ST AND CENTRAL AVE,,34.99344,-85.31716,,
66,66,ARLINGTON TERR AND CENTRAL AVE,,34.99261,-85.31762,,
67,67,CENTRAL AVE AND LYNCHBURG ST,,34.99172,-85.3181,,
68,68,BEDFORD AVE AND CENTRAL AVE,,34.99072,-85.31866,,
69,69,CENTRAL AVE AND HALSEY ST,,34.98893,-85.31932,,
70,70,DORSEY ST AND HALSEY ST,,34.98867,-85.31856,,
71,71,USHER ST (DORRIS ST) AT 5232,,34.98916,-85.31632,,
72,72,USHER ST (DORRIS ST) AT 5216,,34.9899,-85.31591,,
73,73,52ND ST AND FAGAN ST,,34.99044,-85.31467,,
74,74,52ND ST AT 524,,34.98982,-85.313,,
75,75,52ND ST AND POLK ST,,34.98939,-85.31185,,
76,76,52ND ST AND WILSON RD,,34.98876,-85.31014,,
77,77,51ST ST AND WILSON RD,,34.9901,-85.30907,,
78,78,51ST ST AND WOODLAND VIEW CIR,,34.9899,-85.30778,,
79,79,JEFFERY LN AND WOODLAND VIEW CIR,,34.98927,-85.30554,,
80,80,ANGELA DR AND WOODLAND VIEW CIR,,34.98951,-85.3047,,
81,81,ANGELA DR AT 4910,,34.9903,-85.30489,,
82,82,49TH ST AND ANGELA DR,,34.99131,-85.30494,,
83,83,DORRIS ST AND WORKMAN RD,,34.99829,-85.31296,,
84,84,FAGAN ST AND WORKMAN RD,,34.99791,-85.3119,,
85,85,WORKMAN RD AT JUNK YARD,,34.9972,-85.30991,,
86,86,WILSON RD AND WORKMAN RD,,34.99574,-85.30629,,
87,87,48TH ST AND WILSON RD,,34.99337,-85.30753,,
88,88,49TH ST AND WOODLAND VIEW CIR,,34.99228,-85.30721,,
89,89,49TH ST AND JEFFERY LN,,34.99186,-85.30605,,
90,90,49TH ST AND ANGELA DR,,34.99125,-85.30497,,
92,92,USHER ST (DORRIS ST) AT 5233,,34.98905,-85.3164,,
93,93,HALSEY ST AND USHER ST (DORRIS ST),,34.98825,-85.31692,,
94,94,DORSEY ST AND HALSEY ST,,34.9887,-85.3184,,
95,95,CENTRAL AVE AND HALSEY ST,,34.98907,-85.31948,,
96,96,BEDFORD AVE AND CENTRAL AVE,,34.99045,-85.31881,,
97,97,CENTRAL AVE AND LYNCHBURG ST,,34.99172,-85.31813,,
98,98,ARLINGTON TERR AND CENTRAL AVE,,34.99252,-85.31767,,
99,99,CENTRAL AVE AT VELSICOL,,34.9936,-85.31707,,
100,100,CENTRAL AVE AND WORKMAN RD,,34.99871,-85.31427,,
101,101,45TH ST AND CENTRAL AVE,,34.99995,-85.3136,,
102,102,42ND ST AND CENTRAL AVE,,35.00202,-85.31244,,
103,103,41ST ST AND CENTRAL AVE,,35.0038,-85.31149,,
104,104,38TH ST AND CENTRAL AVE,,35.00531,-85.31068,,
105,105,38TH ST AND HUGHES AVE,,35.00584,-85.31144,,
106,106,38TH ST AND KIRKLAND AVE,,35.00629,-85.31262,,
107,107,38TH ST AND HIGHLAND AVE,,35.00671,-85.31376,,
108,108,38TH ST AND CHANDLER PL,,35.00699,-85.31449,,
109,109,38TH ST AND OHLS AVE,,35.00762,-85.31622,,
110,110,38TH ST AND ALTON PARK BLVD,,35.00818,-85.31767,,
111,111,37TH ST AND ALTON PARK BLVD,,35.00927,-85.3173,,
112,112,37TH ST AT CALVIN DONALDSON,,35.01006,-85.31866,,
113,113,37TH ST AND PIROLA ST,,35.01059,-85.32002,,
114,114,38TH ST AND PIROLA ST,,35.00939,-85.32091,,
115,115,PIROLA ST AT POST OFFICE,,35.00837,-85.32147,,
116,116,40TH ST AT SOUTH CHATTANOOGA RECREATION CENTER,,35.00821,-85.32279,,
117,117,40TH ST AND TEACHER PL,,35.00817,-85.32414,,
118,118,40TH ST AT BEN MILLER PARK,,35.00813,-85.32527,,
119,119,40TH ST AT BI LO,,35.01071,-85.32579,,
120,120,38TH ST AND TENNESSEE AVE,,35.01103,-85.3274,,
124,124,33RD ST AND BROAD ST (LEE HWY),,35.01743,-85.32222,,
125,125,33RD ST AT CHATTEM,,35.01727,-85.32133,,
126,126,33RD ST AND WILLIAMS ST,,35.01689,-85.32023,,
127,127,33RD ST AT TEEN CHALLENGE,,35.01647,-85.31904,,
128,128,33RD ST AND TARLTON AVE,,35.0161,-85.31797,,
129,129,33RD ST AND DELONG ST,,35.01575,-85.31697,,
130,130,33RD ST AND ALTON PARK BLVD,,35.01493,-85.3146,,
132,132,31ST ST AND ALTON PARK BLVD,,35.01727,-85.313,,
133,133,ALTON PARK BLVD AND SHIPP AVE,,35.01886,-85.31211,,
134,134,MARKET ST AT D M WHITE,,35.01995,-85.3115,,
135,135,28TH ST AND MARKET ST,,35.024,-85.3116,,
136,136,MARKET ST AT HOWARD SCHOOL OF ACADEMICS AND TECHNOLOGY,,35.02546,-85.31155,,
137,137,25TH ST AND MARKET ST,,35.02649,-85.31099,,
138,138,19TH ST AND MARKET ST,,35.03227,-85.30855,,
139,139,17TH ST AND MARKET ST,,35.03414,-85.3082,,
140,140,16TH ST AND MARKET ST,,35.03509,-85.30775,,
141,141,MAIN ST AND MARKET ST,,35.03586,-85.30732,,
142,142,MARKET ST AT CHATTANOOGA CHOO CHOO,,35.03746,-85.30737,,
143,143,MARKET ST AT SHUTTLE PARK SOUTH,,35.0386,-85.30743,,
144,144,MARKET ST AT DEVELOPMENT RESOURCE CENTER (DRC),,35.04026,-85.30788,,
145,145,12TH ST AND MARKET ST,,35.04168,-85.30864,,
146,146,ANGELA DR AND WOODLAND VIEW CIR,,34.98959,-85.30462,,
147,147,49TH ST AT 715,,34.9921,-85.30658,,
148,148,49TH ST AND WILSON RD,,34.99252,-85.30775,,
149,149,48TH ST AND WILSON RD,,34.99319,-85.30745,,
150,150,WILSON RD AND WORKMAN RD,,34.99567,-85.30616,,
151,151,FAGAN ST AND WORKMAN RD,,34.99788,-85.31166,,
152,152,DORRIS ST AND WORKMAN RD,,34.99829,-85.31274,,
153,153,CENTRAL AVE AND WORKMAN RD,,34.99879,-85.31405,,
154,154,SOUTHSIDE COMMUNITY HEALTH CENTER,,35.00651,-85.30721,,
155,155,JEFFERY LN AND WOODLAND VIEW CIR,,34.98932,-85.30549,,
156,156,51ST ST AND WOODLAND VIEW CIR,,34.98981,-85.30758,,
157,157,51ST ST AND WILSON RD,,34.99026,-85.30904,,
158,158,52ND ST AND WILSON RD,,34.98899,-85.31004,,
159,159,52ND ST AND POLK ST,,34.98951,-85.31173,,
160,160,52ND ST AT 529,,34.9901,-85.31336,,
161,161,52ND ST AND FAGAN ST,,34.99054,-85.31454,,
162,162,USHER ST (DORRIS ST) AT 5201,,34.99073,-85.3156,,
163,163,11TH ST AND MARKET ST,,35.04345,-85.30928,,
164,164,MARKET ST AT MILLER PARK,,35.04505,-85.30931,,
165,165,M.L. KING BLVD AND MARKET ST,,35.04606,-85.30934,,
166,166,5TH ST AND MARKET ST,,35.05072,-85.30945,,
167,167,4TH ST AND MARKET ST,,35.05212,-85.30955,,
168,168,4TH ST AND CHERRY ST,,35.05215,-85.30875,,
169,169,4TH ST AND LOOKOUT ST,,35.05215,-85.30664,,
170,170,4TH ST AND HIGH ST,,35.0521,-85.30567,,
171,171,4TH ST AND LINDSAY ST,,35.05183,-85.30321,,
172,172,4TH ST AND HOUSTON ST,,35.0513,-85.30189,,
173,173,4TH ST AND MABEL ST,,35.05073,-85.30007,,
174,174,3RD ST AND SISKIN DR,,35.05006,-85.2962,,
175,175,3RD ST AND COLLINS ST,,35.04963,-85.29461,,
176,176,3RD ST AND HAMPTON ST,,35.04833,-85.29208,,
177,177,3RD ST AND WIEHL ST,,35.04781,-85.29074,,
178,178,3RD ST AND CENTRAL AVE,,35.04695,-85.28857,,
179,179,3RD ST AND ONEAL ST,,35.04639,-85.28706,,
180,180,3RD ST AND SCRUGGS ST,,35.04584,-85.28552,,
181,181,3RD ST AT WARNER PARK,,35.04397,-85.28054,,
182,182,3RD ST AND HIGHLAND PARK AVE,,35.0431,-85.27803,,
183,183,3RD ST AND HOLLY ST,,35.04262,-85.27679,,
184,184,3RD ST AND HAWTHORNE ST,,35.04145,-85.27364,,
185,185,GARFIELD AVE AND ORCHARD KNOB AVE,,35.04146,-85.27164,,
188,188,CITICO AVE AND ORCHARD KNOB AVE,,35.04573,-85.26941,,
189,189,ORCHARD KNOB AVE AND ROBBINS ST,,35.04667,-85.26894,,
190,190,MILNE ST AND ORCHARD KNOB AVE,,35.04826,-85.26808,,
191,191,COOLEY ST AND ROANOKE AVE,,35.05035,-85.26571,,
192,192,ROANOKE AVE AND WILSON ST,,35.052,-85.26482,,
193,193,ROANOKE AVE AND WILCOX BLVD,,35.05362,-85.26393,,
194,194,CAMDEN ST AND ROANOKE AVE,,35.05534,-85.26299,,
195,195,OCOEE ST AND ROANOKE AVE,,35.05649,-85.26237,,
211,211,CRUTCHFIELD ST AND DODSON AVE,,35.06412,-85.25455,,
212,212,DAISY ST AND DODSON AVE,,35.06607,-85.25346,,
213,213,APPLING ST AND DODSON AVE,,35.06732,-85.2528,,
214,214,DODSON AVE AND FAIRLEIGH ST,,35.06841,-85.25218,,
215,215,BACHMAN ST AND DODSON AVE,,35.06947,-85.25161,,
216,216,CUSHMAN ST AND DODSON AVE,,35.07058,-85.25101,,
217,217,DODSON AVE AND STUART ST,,35.07173,-85.25017,,
218,218,LAURA ST AND ROANOKE AVE,,35.05109,-85.26525,,
219,219,DODSON AVE HEALTH CENTER,,35.05039,-85.26204,,
220,220,BRADT ST AND WILSON ST,,35.0518,-85.26398,,
221,221,HWY 58 AND JERSEY PIKE,,35.09312,-85.18013,,
222,222,JERSEY PIKE AT GOODWILL,,35.0916,-85.18042,,
223,223,JERSEY PIKE AND OAKWOOD DR,,35.08823,-85.18233,,
225,225,HWY 58 AND WEBB RD,,35.08641,-85.19172,,
226,226,ACCESS RD AND BONNY OAKS DR,,35.08101,-85.21354,,
227,227,ADDISON RD AND BONNY OAKS DR,,35.07956,-85.2269,,
228,228,BONNY OAKS DR AND PARKWAY DR,,35.07409,-85.23464,,
229,229,BIRCHWOOD DR AND CAMPBELL ST,,35.07344,-85.23797,,
230,230,CHAMBERLAIN AVE AND STUART ST,,35.07031,-85.24622,,
231,231,STUART ST AND WHEELER AVE,,35.07083,-85.24754,,
232,232,STUART ST AND TAYLOR ST,,35.07134,-85.24885,,
233,233,CUSHMAN ST AND DODSON AVE,,35.07088,-85.25091,,
234,234,BACHMAN ST AND DODSON AVE,,35.0698,-85.25153,,
235,235,DODSON AVE AND FAIRLEIGH ST,,35.06863,-85.25217,,
236,236,APPLING ST AND DODSON AVE,,35.06757,-85.25272,,
237,237,DAISY ST AND DODSON AVE,,35.06648,-85.25331,,
238,238,CRUTCHFIELD ST AND DODSON AVE,,35.06449,-85.25439,,
253,253,OLIVE ST AND ROANOKE AVE,,35.05794,-85.26161,,
254,254,OCOEE ST AND ROANOKE AVE,,35.05671,-85.26228,,
255,255,CAMDEN ST AND ROANOKE AVE,,35.05562,-85.26288,,
256,256,ROANOKE AVE AND WILCOX BLVD,,35.05398,-85.26379,,
257,257,ROANOKE AVE AND WILSON ST,,35.05233,-85.26474,,
258,258,LAURA ST AND ROANOKE AVE,,35.05151,-85.26515,,
259,259,COOLEY ST AND ROANOKE AVE,,35.05072,-85.26576,,
260,260,PORTLAND ST AND ROANOKE AVE,,35.04988,-85.26606,,
261,261,ORCHARD KNOB AVE AT 957,,35.04942,-85.26719,,
262,262,MILNE ST AND ORCHARD KNOB AVE,,35.04863,-85.26797,,
263,263,CARSON AVE AND ORCHARD KNOB AVE,,35.04731,-85.26868,,
264,264,CITICO AVE AND ORCHARD KNOB AVE,,35.04614,-85.26932,,
265,265,JACKSON ST AND ORCHARD KNOB AVE,,35.04483,-85.27002,,
266,266,CLEVELAND AVE AND ORCHARD KNOB AVE,,35.04335,-85.27081,,
269,269,3RD ST AND HAWTHORNE ST,,35.04135,-85.27323,,
270,270,3RD ST AND HOLLY ST,,35.04269,-85.27647,,
271,271,3RD ST AT DIAGNOSTIC CLINIC,,35.04342,-85.27847,,
272,272,3RD ST AND HOLTZCLAW AVE,,35.04372,-85.27965,,
273,273,3RD ST AT FIELD HOUSE,,35.04429,-85.28075,,
274,274,3RD ST AND SCRUGGS ST,,35.04589,-85.28521,,
275,275,3RD ST AND ONEAL ST,,35.04639,-85.28647,,
276,276,3RD ST AND CENTRAL AVE,,35.04684,-85.28774,,
277,277,3RD ST AND WIEHL ST,,35.04782,-85.29036,,
278,278,3RD ST AND HAMPTON ST,,35.04829,-85.2917,,
279,279,3RD ST AND PALMETTO ST,,35.04873,-85.29302,,
280,280,3RD ST AND COLLINS ST,,35.04954,-85.29432,,
281,281,3RD ST AT CHATTANOOGA SCHOOL FOR THE ARTS AND SCIENCES (CSAS),,35.0499,-85.29531,,
282,282,3RD ST AND MABEL ST,,35.05129,-85.2993,,
283,283,3RD ST AND HOUSTON ST,,35.05191,-85.3013,,
284,284,3RD ST AND LINDSAY ST,,35.05252,-85.30243,,
285,285,3RD ST AND HIGH ST,,35.05351,-85.30527,,
286,286,3RD ST AND WALNUT ST,,35.05357,-85.30734,,
287,287,3RD ST AND CHERRY ST,,35.05355,-85.30842,,
288,288,DODSON AVE AND STUART ST,,35.07193,-85.25009,,
289,289,STUART ST AND TAYLOR ST,,35.07142,-85.24912,,
290,290,STUART ST AND WHEELER AVE,,35.07089,-85.2478,,
291,291,CHAMBERLAIN AVE AND STUART ST,,35.0704,-85.24648,,
292,292,CHAMBERLAIN AVE AND CUSHMAN ST,,35.06931,-85.24692,,
293,293,BOONE ST AND CHAMBERLAIN AVE,,35.06851,-85.2474,,
294,294,CHAMBERLAIN AVE AND FAIRLEIGH ST,,35.06721,-85.24812,,
295,295,GLASS ST AND WILHOIT ST,,35.06676,-85.24462,,
296,296,CAMPBELL ST AND GLASS ST,,35.06718,-85.24351,,
297,297,CAMPBELL ST AND MOON ST,,35.0695,-85.24378,,
298,298,CAMPBELL ST AND WILDER ST,,35.07045,-85.24328,,
299,299,BATTERY HEIGHTS AND CAMPBELL ST,,35.07243,-85.24139,,
300,300,CAMPBELL ST AND NEW YORK AVE,,35.0734,-85.2381,,
301,301,BONNY OAKS DR AND PARKWAY DR,,35.07403,-85.23472,,
302,302,BONNY OAKS DR AND TUGALOO ST,,35.07451,-85.23329,,
303,303,BONNY OAKS DR AND TALATHA ST,,35.07573,-85.23102,,
304,304,ACCESS RD AND BONNY OAKS DR,,35.08077,-85.21421,,
305,305,HWY 58 AND SHELBORNE DR,,35.0845,-85.20011,,
306,306,HWY 58 AND INWOOD LN,,35.08462,-85.19889,,
307,307,HWY 58 AND ROCKY RIVER RD,,35.08515,-85.19474,,
308,308,BRIARWOOD DR AND HWY 58,,35.08569,-85.19296,,
309,309,HAL DR AND HWY 58,,35.08613,-85.19193,,
310,310,HWY 58 AT FOOD LION,,35.09199,-85.18263,,
311,311,ROANOKE AVE AND WILSON ST,,35.0521,-85.26461,,
312,312,3RD ST AND ORCHARD KNOB AVE,,35.04087,-85.27216,,
313,313,3RD ST AND WILLOW ST,,35.0399,-85.26935,,
314,314,4TH ST AND WILLOW ST,,35.03908,-85.26972,,
315,315,5TH ST AND WILLOW ST,,35.03834,-85.27005,,
316,316,IVY ST AND WILLOW ST,,35.03746,-85.27045,,
317,317,VINE ST AND WILLOW ST,,35.03651,-85.271,,
318,318,OAK ST AND WILLOW ST,,35.03581,-85.27135,,
319,319,DUNCAN AVE AND WILLOW ST,,35.03416,-85.27227,,
320,320,CHAMBERLAIN AVE AND WILLOW ST,,35.03335,-85.27272,,
321,321,BAILEY AVE AND KELLY ST,,35.03181,-85.2718,,
322,322,BAILEY AVE AND LYERLY ST,,35.03128,-85.2704,,
323,323,DODDS AVE AND DUNCAN AVE,,35.03091,-85.26426,,
324,324,GLENWOOD DR AND OAK ST,,35.03237,-85.26345,,
325,325,GLENWOOD DR AND VINE ST,,35.03367,-85.26275,,
326,326,5TH ST AND GLENWOOD DR,,35.03505,-85.26199,,
327,327,4TH ST AND GLENWOOD DR,,35.03587,-85.26156,,
328,328,3RD ST AND GLENWOOD DR,,35.03673,-85.26104,,
329,329,GLENWOOD DR AT 418,,35.03869,-85.26102,,
330,330,GLENWOOD DR AND PARKWOOD AVE,,35.03954,-85.25964,,
332,332,GLENWOOD DR AND ROBBINS ST,,35.04258,-85.25783,,
333,333,GLENWOOD DR AND MISSON AVE,,35.04512,-85.2569,,
334,334,GLENWOOD DR AT 1016,,35.04623,-85.25681,,
335,335,GLENWOOD DR AT 1208,,35.04829,-85.25676,,
336,336,CHAMBERLAIN AVE AND GLENWOOD DR,,35.04936,-85.25768,,
337,337,BALTO ST AND CHAMBERLAIN AVE,,35.05053,-85.25738,,
338,338,CHAMBERLAIN AVE AND WILCOX BLVD,,35.05154,-85.25663,,
339,339,CHAMBERLAIN AVE AND OLIVE ST,,35.0551,-85.25473,,
340,340,CHAMBERLAIN AVE AND GILBERT ST,,35.05622,-85.25408,,
342,342,CHAMBERLAIN AVE AND MCRAE ST,,35.05776,-85.25317,,
343,343,BRAGG ST AND CHAMBERLAIN AVE,,35.05939,-85.25233,,
344,344,CHAMBERLAIN AVE AND EMMA ST,,35.06088,-85.2515,,
345,345,CHAMBERLAIN AVE AND CRUTCHFIELD ST,,35.06276,-85.2505,,
346,346,CHAMBERLAIN AVE AND LATTA ST,,35.06403,-85.2498,,
347,347,CHAMBERLAIN AVE AND GLASS ST,,35.06524,-85.24912,,
348,348,ADDISON RD AND BONNY OAKS DR,,35.07948,-85.22739,,
349,349,MCCALLIE AVE AND WILLOW ST,,35.03502,-85.2718,,
350,350,CHAMBERLAIN AVE AND FAIRLEIGH ST,,35.067,-85.24813,,
351,351,BOONE ST AND CHAMBERLAIN AVE,,35.06843,-85.24735,,
352,352,CHAMBERLAIN AVE AND CUSHMAN ST,,35.06919,-85.24692,,
353,353,CHAMBERLAIN AVE AND STUART ST,,35.07022,-85.24637,,
354,354,SHOLAR AVE AT CARTA,,35.05617,-85.26871,,
355,355,HOLTZCLAW AVE AND WILCOX BLVD,,35.05513,-85.26941,,
356,356,HOLTZCLAW AVE AND WILSON ST,,35.05476,-85.27043,,
357,357,HOLTZCLAW AVE AT PUMP STATION,,35.0523,-85.27491,,
358,358,HOLTZCLAW AVE AT CHATTANOOGA HOUSING AUTHORITY,,35.04902,-85.27711,,
359,359,CLEVELAND AVE AND HOLTZCLAW AVE,,35.04641,-85.27851,,
360,360,CHAMBERLAIN AVE AND GLASS ST,,35.06569,-85.24894,,
361,361,CHAMBERLAIN AVE AND LATTA ST,,35.06408,-85.2498,,
362,362,CHAMBERLAIN AVE AND CRUTCHFIELD ST,,35.06305,-85.25037,,
363,363,CHAMBERLAIN AVE AND EMMA ST,,35.0611,-85.25144,,
364,364,BRAGG ST AND CHAMBERLAIN AVE,,35.05956,-85.25228,,
365,365,CHAMBERLAIN AVE AND MCRAE ST,,35.05813,-85.25306,,
366,366,CHAMBERLAIN AVE AND GILBERT ST,,35.05631,-85.25404,,
367,367,CHAMBERLAIN AVE AND OLIVE ST,,35.05534,-85.25457,,
368,368,CHAMBERLAIN AVE AND OCOEE ST,,35.05421,-85.25519,,
369,369,CAMDEN ST AND CHAMBERLAIN AVE,,35.05304,-85.25582,,
370,370,CHAMBERLAIN AVE AND WILCOX BLVD,,35.052,-85.25638,,
374,374,GLENWOOD DR AND MILNE ST,,35.0437,-85.2573,,
375,375,GLENWOOD DR AND ROBBINS ST,,35.04284,-85.25778,,
376,376,GLENWOOD DR AND PARKWOOD AVE,,35.0399,-85.25946,,
377,377,GLENWOOD DR AT 417,,35.03876,-85.26109,,
378,378,3RD ST AND GLENWOOD DR,,35.03715,-85.26109,,
379,379,4TH ST AND GLENWOOD DR,,35.0362,-85.26155,,
380,380,5TH ST AND GLENWOOD DR,,35.03537,-85.26199,,
381,381,GLENWOOD DR AND IVY ST,,35.03455,-85.26242,,
382,382,GLENWOOD DR AND VINE ST,,35.03369,-85.26288,,
383,383,GLENWOOD DR AND OAK ST,,35.03287,-85.26334,,
385,385,BUCKLEY ST AND UNION AVE,,35.02937,-85.26767,,
386,386,UNION AVE AND WATKINS ST,,35.02987,-85.26895,,
387,387,LYERLY ST AND UNION AVE,,35.03044,-85.27051,,
388,388,KELLY ST AND UNION AVE,,35.031,-85.27204,,
389,389,UNION AVE AND WILLOW ST,,35.03153,-85.27353,,
390,390,BAILEY AVE AND UNION AVE,,35.03185,-85.27344,,
391,391,CHAMBERLAIN AVE AND WILLOW ST,,35.03308,-85.27293,,
392,392,DUNCAN AVE AND WILLOW ST,,35.03391,-85.27232,,
393,393,OAK ST AND WILLOW ST,,35.03551,-85.2714,,
395,395,IVY ST AND WILLOW ST,,35.03712,-85.27053,,
396,396,5TH ST AND WILLOW ST,,35.03801,-85.27013,,
397,397,3RD ST AND WILLOW ST,,35.03918,-85.26954,,
398,398,3RD ST AND ROANOKE AVE,,35.04031,-85.27042,,
399,399,3RD ST AND ORCHARD KNOB AVE,,35.04078,-85.2718,,
400,400,ONEAL ST AT ENGEL STADIUM,,35.04497,-85.28779,,
402,402,PALMETTO ST AT CHALLENGER CENTER,,35.04766,-85.29378,,
403,403,5TH ST AND PALMETTO ST,,35.04695,-85.29415,,
404,404,PALMETTO ST AND VINE ST,,35.04596,-85.29464,,
405,405,OAK ST AND PALMETTO ST,,35.04486,-85.29526,,
406,406,MCCALLIE AVE AND PALMETTO ST,,35.04398,-85.29572,,
407,407,MCCALLIE AVE AT BRYAN HOME,,35.04418,-85.29666,,
408,408,BALDWIN ST AND MCCALLIE AVE,,35.04499,-85.29882,,
409,409,DOUGLAS ST AND MCCALLIE AVE,,35.04588,-85.30139,,
410,410,8TH ST AND DOUGLAS ST,,35.04521,-85.30206,,
411,411,8TH ST AND BALDWIN ST,,35.04419,-85.29976,,
412,412,MCCALLIE AVE AT STATE BLDG,,35.04646,-85.3029,,
413,413,HOUSTON ST AND MCCALLIE AVE,,35.04688,-85.30402,,
414,414,HOUSTON ST AND OAK ST,,35.04768,-85.3037,,
415,415,HOUSTON ST AND VINE ST,,35.04884,-85.30306,,
416,416,DOUGLAS ST AND VINE ST,,35.04801,-85.30065,,
417,417,5TH ST AND DOUGLAS ST,,35.04911,-85.29974,,
418,418,5TH ST AND LANSING ST,,35.04885,-85.29895,,
419,419,5TH ST AT HOLT HALL,,35.04838,-85.29764,,
423,423,6TH ST AND BROAD ST,,35.0494,-85.31074,,
424,424,7TH ST AND BROAD ST,,35.04818,-85.31068,,
425,425,8TH ST AND BROAD ST,,35.04697,-85.31063,,
426,426,BROAD ST AND M.L. KING BLVD,,35.04548,-85.31055,,
427,427,BROAD ST AT TVA,,35.04313,-85.31033,,
428,428,16TH ST AND BROAD ST,,35.03686,-85.31173,,
429,429,17TH ST AND BROAD ST,,35.03603,-85.3122,,
430,430,20TH ST AND BROAD ST,,35.03366,-85.31349,,
431,431,25TH ST AND BROAD ST (LEE HWY),,35.0286,-85.31632,,
432,432,26TH ST AND BROAD ST (LEE HWY),,35.02774,-85.31678,,
433,433,27TH ST AND BROAD ST (LEE HWY),,35.02587,-85.31781,,
434,434,28TH ST AND BROAD ST (LEE HWY),,35.02497,-85.31831,,
435,435,31ST ST AND BROAD ST (LEE HWY),,35.02105,-85.32044,,
436,436,BROAD ST (LEE HWY) AT CONOCO,,35.0199,-85.32107,,
437,437,32ND ST AND BROAD ST (LEE HWY),,35.01914,-85.32148,,
439,439,TENNESSEE AVE AT LOOKOUT MOUNTAIN INCLINE,,35.00978,-85.328,,
440,440,41ST ST AND ST ELMO AVE,,35.00674,-85.32868,,
441,441,42ND ST AND ST ELMO AVE,,35.0049,-85.32886,,
442,442,ST ELMO AVE AND THANKFUL PL,,35.00413,-85.32894,,
443,443,44TH ST AND ST ELMO AVE,,35.00198,-85.32915,,
444,444,45TH ST AND ST ELMO AVE,,35.00047,-85.3293,,
445,445,46TH ST AND ST ELMO AVE,,34.99868,-85.3295,,
446,446,47TH ST AND ST ELMO AVE,,34.99685,-85.32965,,
447,447,48TH ST AND ST ELMO AVE,,34.99571,-85.33005,,
448,448,49TH ST AND ST ELMO AVE,,34.99474,-85.33046,,
449,449,51ST ST AND ST ELMO AVE,,34.99256,-85.33096,,
450,450,54TH ST AND ST ELMO AVE,,34.98987,-85.33123,,
451,451,55TH ST AND ST ELMO AVE,,34.98845,-85.33121,,
452,452,55TH ST AND ALABAMA AVE,,34.98845,-85.33274,,
453,453,56TH ST AND ALABAMA AVE,,34.987,-85.33325,,
454,454,56TH ST AND ST ELMO AVE,,34.98681,-85.33213,,
472,472,BROAD ST AT WENDYS,,35.02015,-85.32072,,
473,473,28TH ST AND BROAD ST (LEE HWY),,35.02459,-85.31827,,
474,474,27TH ST AND BROAD ST (LEE HWY),,35.02563,-85.31773,,
475,475,26TH ST AND BROAD ST (LEE HWY),,35.02744,-85.31672,,
476,476,21ST ST AND BROAD ST,,35.03235,-85.31395,,
477,477,19TH ST AND BROAD ST,,35.03416,-85.313,,
478,478,18TH ST AND BROAD ST,,35.03497,-85.31254,,
479,479,17TH ST AND BROAD ST,,35.03581,-85.31209,,
480,480,16TH ST AND BROAD ST,,35.03664,-85.31161,,
481,481,BROAD ST AND MAIN ST,,35.03745,-85.31122,,
482,482,13TH ST AND BROAD ST,,35.03964,-85.30999,,
483,483,12TH ST AND BROAD ST,,35.0416,-85.30953,,
484,484,BROAD ST AT TVA,,35.04266,-85.31017,,
485,485,11TH ST AND BROAD ST,,35.04377,-85.31034,,
486,486,BROAD ST AND M.L. KING BLVD,,35.04555,-85.31041,,
487,487,8TH ST AND BROAD ST,,35.04728,-85.31045,,
488,488,7TH ST AND BROAD ST,,35.04846,-85.31047,,
489,489,6TH ST AND BROAD ST,,35.0499,-85.31045,,
491,491,8TH ST AND CHESTNUT ST,,35.04693,-85.31177,,
492,492,8TH ST AND BROAD ST,,35.04708,-85.31076,,
493,493,11TH ST AND BROAD ST,,35.04408,-85.31053,,
494,494,BROAD ST AT TVA,,35.04238,-85.31026,,
495,495,12TH ST AND MARKET ST,,35.04182,-85.30899,,
499,499,LOOKOUT ST AT UNUM PROVIDENT,,35.05041,-85.30642,,
500,500,5TH ST AND WALNUT ST,,35.05093,-85.30737,,
501,501,5TH ST AND BROAD ST,,35.05092,-85.30847,,
503,503,4TH ST AND WALNUT ST,,35.05222,-85.30766,,
505,505,RIVERSIDE DR AT RIVER PARK,,35.05602,-85.28108,,
507,507,AMNICOLA HWY AND CREEKSIDE RD,,35.09283,-85.25582,,
508,508,AMNICOLA HWY AT COCA COLA BOTTLING,,35.09399,-85.2528,,
509,509,NORTHGATE MALL MAIN ENTRANCE,,35.12886,-85.24071,,
511,511,BARTON AVE AND CREWDSON ST,,35.06388,-85.2975,,
512,512,BARTON AVE AND MCFARLAND AVE,,35.06435,-85.29658,,
513,513,BARTON AVE AND NORMAL AVE,,35.06497,-85.29518,,
514,514,BARTON AVE AND MISSISSIPPI AVE,,35.06565,-85.29319,,
515,515,BARTON AVE AND RUSSELL ST,,35.06618,-85.29162,,
516,516,BARTON AVE AND DUGDALE ST,,35.06668,-85.2902,,
517,517,HANOVER ST AND HIXSON PIKE,,35.06834,-85.28941,,
518,518,FALMOUTH RD AND HIXSON PIKE,,35.06937,-85.28925,,
519,519,HIXSON PIKE AT 1312,,35.07095,-85.28908,,
520,520,HIXSON PIKE AT 1336,,35.07296,-85.28858,,
522,522,HIXSON PIKE AND RIVERVIEW RD,,35.07514,-85.28817,,
523,523,HIXSON PIKE AND S SHADY CIR,,35.07667,-85.2883,,
524,524,HIXSON PIKE AND N SHADY CIR,,35.07814,-85.28914,,
525,525,HIXSON PIKE AND WOODHILL DR,,35.07959,-85.2897,,
526,526,HIXSON PIKE AT 1814,,35.08055,-85.28977,,
527,527,HIXSON PIKE AND MINNEKAHADA PL,,35.08181,-85.28985,,
529,529,CONTINENTAL DR AND HIXSON PIKE,,35.08674,-85.2902,,
530,530,ALTAMONT RD AND HIXSON PIKE,,35.08796,-85.28893,,
531,531,HIXSON PIKE AT RIVER HILLS MANOR,,35.09023,-85.28687,,
532,532,HAYWOOD AVE AND HIXSON PIKE,,35.09141,-85.28647,,
533,533,HIXSON PIKE AND OZARK RD,,35.09412,-85.28537,,
534,534,HIXSON PIKE AND RIVERMONT RD,,35.09617,-85.28246,,
536,536,HIXSON PIKE AND MEADOW LAKE RD,,35.10018,-85.27784,,
537,537,HIXSON PIKE AND RIVERMONT PL,,35.10095,-85.27669,,
538,538,HIXSON PIKE AT RIVERMONT ELEMENTARY SCHOOL,,35.10191,-85.27523,,
539,539,HIXSON PIKE AND LUPTON DR,,35.10413,-85.27359,,
540,540,HIXSON PIKE AND INTERMONT RD,,35.10635,-85.27235,,
541,541,HIXSON PIKE AND MANCHESTER DR,,35.10814,-85.27165,,
542,542,HIXSON PIKE AND MAULDETH RD,,35.1099,-85.27094,,
543,543,HIXSON PIKE AT GRACE BIBLE CHURCH,,35.11153,-85.26914,,
544,544,HIXSON PIKE AND FAIRFAX DR,,35.11218,-85.26674,,
546,546,HIXSON PIKE AND KENSINGTON DR,,35.11304,-85.26253,,
547,547,HIXSON PIKE AND NORCROSS RD,,35.11334,-85.2614,,
549,549,ACCESS RD AND HIXSON PIKE,,35.11435,-85.25714,,
550,550,HIXSON PIKE AT DUPONT ELEMENTARY SCHOOL,,35.11479,-85.25369,,
551,551,HIXSON PIKE AT YMCA,,35.1152,-85.25182,,
552,552,DUPONT PARKWAY AND HIXSON PIKE,,35.1171,-85.25031,,
553,553,HAMILL RD AND HIXSON PIKE,,35.11836,-85.2497,,
554,554,BAGWELL AVE AND HIXSON PIKE,,35.12139,-85.24864,,
556,556,HIXSON PIKE AND WILLIAMS RD,,35.12509,-85.24748,,
557,557,CLOVERDALE DR AND HIXSON PIKE,,35.12845,-85.24645,,
558,558,NORTHGATE MALL DR AT PANERA,,35.13224,-85.24192,,
559,559,NORTHGATE MALL DR AT T.J. MAXX,,35.13092,-85.24204,,
560,560,NORTHGATE MALL DR AT ARBYS,,35.12827,-85.24201,,
561,561,NORTHPOINT BLVD AT LOWES,,35.13846,-85.24686,,
562,562,NORTHPOINT BLVD AT OWEN CYCLERY,,35.13868,-85.24419,,
563,563,HIXSON PIKE AND NORTHPOINT BLVD,,35.13584,-85.23945,,
564,564,NORTHGATE MALL DR AT CHILIS,,35.1325,-85.2413,,
566,566,8TH ST AND PINE ST,,35.04691,-85.31258,,
568,568,5TH ST AT REPUBLIC PARKING LOT,,35.05093,-85.31004,,
569,569,BROAD ST AT JACKS ALLEY,,35.05158,-85.31057,,
570,570,CLOVERDALE DR AND HIXSON PIKE,,35.12833,-85.24668,,
571,571,HIXSON PIKE AND WILLIAMS RD,,35.12719,-85.24697,,
572,572,ELY RD AND HIXSON PIKE,,35.12322,-85.24819,,
573,573,BAGWELL AVE AND HIXSON PIKE,,35.12197,-85.24859,,
574,574,HAMILL RD AND HIXSON PIKE,,35.11844,-85.24988,,
575,575,HIGHWOOD DR AND HIXSON PIKE,,35.11496,-85.25333,,
576,576,HIXSON PIKE AT TACO BELL,,35.11489,-85.25567,,
577,577,ACCESS RD AND HIXSON PIKE,,35.11472,-85.25656,,
578,578,HIXSON PIKE AND NORCROSS RD,,35.11359,-85.26134,,
579,579,HIXSON PIKE AND KENSINGTON DR,,35.11331,-85.26232,,
580,580,FOREST HIGHLAND DR AND HIXSON PIKE,,35.11313,-85.26339,,
581,581,HIXSON PIKE AND FAIRFAX DR,,35.11238,-85.26665,,
583,583,HIXSON PIKE AND MAULDETH RD,,35.11014,-85.27094,,
584,584,HIXSON PIKE AND MUNRO RD,,35.10936,-85.27132,,
585,585,HIXSON PIKE AND MANCHESTER DR,,35.10846,-85.27165,,
586,586,HIXSON PIKE AND INTERMONT RD,,35.10688,-85.27227,,
587,587,HIXSON PIKE AND LUPTON DR,,35.10445,-85.27355,,
588,588,HIXSON PIKE AT RIVERMONT PRESBYTERIAN CHURCH,,35.10224,-85.27496,,
589,589,BLACK OAK CIR AND HIXSON PIKE,,35.10153,-85.27574,,
590,590,HIXSON PIKE AND LAWSON ST,,35.1007,-85.27719,,
591,591,HIXSON PIKE AND LINDEN HALL RD,,35.1001,-85.27797,,
592,592,HIXSON PIKE AND VAN BUREN ST,,35.09974,-85.27884,,
593,593,HIXSON PIKE AND RIVERMONT RD,,35.09635,-85.28235,,
594,594,HIXSON PIKE AND OZARK RD,,35.09416,-85.28529,,
595,595,HAYWOOD AVE AND HIXSON PIKE,,35.09152,-85.28647,,
596,596,HIXSON PIKE AT RIVER HILLS MANOR,,35.09042,-85.28685,,
597,597,ALTAMONT RD AND HIXSON PIKE,,35.08826,-85.28849,,
598,598,CONTINENTAL DR AND HIXSON PIKE,,35.08681,-85.29024,,
599,599,DALLAS RD AND HIXSON PIKE,,35.08189,-85.28989,,
600,600,HIXSON PIKE AND WOODHILL DR,,35.07966,-85.28976,,
601,601,HIXSON PIKE AND N SHADY CIR,,35.07813,-85.28923,,
602,602,HIXSON PIKE AND S SHADY CIR,,35.07674,-85.28842,,
603,603,ENGLEWOOD AVE AND HIXSON PIKE,,35.07457,-85.28846,,
604,604,DARTMOUTH ST AND HIXSON PIKE,,35.07024,-85.28931,,
605,605,HANOVER ST AND HIXSON PIKE,,35.06868,-85.28947,,
606,606,BARTON AVE AND DUGDALE ST,,35.06679,-85.29016,,
607,607,BARTON AVE AND RUSSELL ST,,35.06626,-85.29163,,
608,608,BARTON AVE AND MISSISSIPPI AVE,,35.06575,-85.29306,,
609,609,BARTON AVE AND NORMAL AVE,,35.06503,-85.29518,,
610,610,BARTON AVE AND CREWDSON ST,,35.06396,-85.29744,,
611,611,BAKER ST AND BARTON AVE,,35.06307,-85.2989,,
612,612,CLEVELAND AVE AND HOLTZCLAW AVE,,35.046,-85.27862,,
613,613,HOLTZCLAW AVE AT PUMP STATION,,35.05226,-85.27479,,
614,614,HOLTZCLAW AVE AND WILSON ST,,35.05457,-85.27076,,
615,615,HOLTZCLAW AVE AND WILCOX BLVD,,35.05539,-85.26897,,
616,616,ORCHARD KNOB AVE AND WILCOX BLVD,,35.05412,-85.26501,,
617,617,ROANOKE AVE AND WILCOX BLVD,,35.05376,-85.26406,,
619,619,DODSON AVE AND WILCOX BLVD,,35.05267,-85.26113,,
621,621,WHEELER AVE AND WILCOX BLVD,,35.05206,-85.2576,,
626,626,MOSS ST AND WILCOX BLVD,,35.04803,-85.24058,,
627,627,PARKWAY DR AND WILCOX BLVD,,35.04691,-85.23611,,
628,628,DOGWOOD DR AND WILCOX BLVD,,35.04616,-85.23364,,
629,629,PIN OAK DR AND WILCOX BLVD,,35.04504,-85.23178,,
630,630,DALEWOOD DR AND WILCOX BLVD,,35.04374,-85.2286,,
631,631,TALLEY RD AND WILCOX BLVD,,35.04298,-85.2244,,
632,632,MOORE RD AND SHALLOWFORD RD,,35.0434,-85.21916,,
633,633,AIRPORT RD AND SHALLOWFORD RD,,35.05074,-85.21302,,
636,636,CAMILLA DR AND MARIGOLD DR,,35.05975,-85.20889,,
637,637,CAMILLA DR AND JASMINE ST,,35.05977,-85.21127,,
638,638,CAMILLA DR AND JUNIPER ST,,35.05976,-85.21351,,
639,639,CROMWELL HILLS,,35.06043,-85.21436,,
640,640,CAMILLA DR AND JUNIPER ST,,35.05976,-85.21362,,
641,641,CAMILLA DR AND DAHLIA ST,,35.05955,-85.20997,,
642,642,CAMILLA DR AND MARIGOLD DR,,35.05963,-85.20911,,
643,643,CAMILLA DR AND CROMWELL RD,,35.06014,-85.20738,,
665,665,CAINE LN AND CROMWELL HILLS,,35.05655,-85.20906,,
669,669,AGAWELA DR AND SHALLOWFORD RD,,35.04296,-85.22203,,
670,670,TALLEY RD AND WILCOX BLVD,,35.04317,-85.22416,,
671,671,DALEWOOD DR AND WILCOX BLVD,,35.04383,-85.22825,,
672,672,JEANAGA TRAIL AND WILCOX BLVD,,35.04513,-85.23165,,
673,673,DOGWOOD DR AND WILCOX BLVD,,35.0461,-85.23333,,
675,675,PARKWAY DR AND WILCOX BLVD,,35.04702,-85.23594,,
677,677,MOSS ST AND WILCOX BLVD,,35.04798,-85.23972,,
679,679,GREENWOOD RD AND WILCOX BLVD,,35.04809,-85.24266,,
683,683,WHEELER AVE AND WILCOX BLVD,,35.05209,-85.25732,,
684,684,ARLINGTON AVE AND WILCOX BLVD,,35.05239,-85.25837,,
685,685,DODSON AVE AND WILCOX BLVD,,35.05264,-85.26059,,
687,687,ROANOKE AVE AND WILCOX BLVD,,35.05369,-85.26347,,
688,688,ORCHARD KNOB AVE AND WILCOX BLVD,,35.05409,-85.26466,,
689,689,SHERIDAN AVE AND WILCOX BLVD,,35.05486,-85.26674,,
690,690,SHOLAR AVE AT CARTA,,35.05588,-85.26878,,
695,695,FISK AVE AND SHEPHERD RD,,35.03916,-85.18931,,
697,697,SHAW AVE AND SHEPHERD RD,,35.0408,-85.18845,,
698,698,MEHARRY DR AND SHEPHERD RD,,35.04272,-85.18512,,
699,699,ARLENA CIR AND SHEPHERD RD,,35.04807,-85.18218,,
701,701,SHEPHERD RD AND WATERFORD PL,,35.05035,-85.18096,,
702,702,SHALLOWFORD RD AT POST OFFICE,,35.05375,-85.18602,,
703,703,POLYMER DR AND SHALLOWFORD RD,,35.05471,-85.19401,,
705,705,JERSEY PIKE AND SHALLOWFORD RD,,35.05538,-85.19978,,
709,709,CROMWELL RD AT RAILROAD MUSEUM,,35.06647,-85.20386,,
711,711,FOXWOOD PL AND WILCOX BLVD,,35.04791,-85.23966,,
712,712,3RD ST AND HOLTZCLAW AVE,,35.04417,-85.27978,,
713,713,3RD ST AND LOOKOUT ST,,35.05359,-85.30654,,
716,716,FOREST AVE AND FRAZIER AVE,,35.0625,-85.30677,,
724,724,BELL AVE AND SPEARS AVE,,35.06838,-85.31022,,
725,725,GUILD ST AND SPEARS AVE,,35.06915,-85.31004,,
726,726,CHAMBLISS ST AND SPEARS AVE,,35.07021,-85.30991,,
727,727,PEAK ST AND SPEARS AVE,,35.07178,-85.30975,,
728,728,SPEARS AVE AND MARYLAND ST,,35.07352,-85.3096,,
729,729,SAWYER ST AND SPEARS AVE,,35.0744,-85.30955,,
730,730,MARKET ST AND SAWYER ST,,35.0744,-85.3085,,
731,731,MARKET ST AND PEAK ST,,35.07189,-85.30864,,
732,732,CHAMBLISS ST AND MARKET ST,,35.07031,-85.30877,,
733,733,BELL AVE AND MARKET ST,,35.06843,-85.30898,,
734,734,BUSH ST AND MARKET ST,,35.06695,-85.30912,,
735,735,BUSH ST AND SPEARS AVE,,35.06696,-85.3102,,
736,736,MANNING ST AND SPEARS AVE,,35.06599,-85.31028,,
737,737,CHEROKEE BLVD AND MINOR ST,,35.0644,-85.31174,,
738,738,CHEROKEE BLVD AND MANUFACTURERS RD,,35.06365,-85.31041,,
739,739,FRAZIER AVE AND WOODLAND AVE,,35.06257,-85.30793,,
740,740,FOREST AVE AND FRAZIER AVE,,35.06232,-85.30677,,
742,742,MARKET ST AT TVA,,35.04347,-85.30944,,
743,743,MAIN ST AND WILLIAMS ST,,35.03692,-85.30883,,
744,744,COWART ST AND MAIN ST,,35.03734,-85.31009,,
745,745,CHESTNUT ST AND MAIN ST,,35.03848,-85.31324,,
746,746,FORT ST AND MAIN ST,,35.03883,-85.3142,,
747,747,CARTER ST AND MAIN ST,,35.03917,-85.31511,,
748,748,CYPRESS ST AND MAIN ST,,35.04034,-85.31827,,
749,749,MAIN ST AND RIVERFRONT PKWY,,35.04084,-85.31959,,
750,750,GROVE ST AND RIVERFRONT PKWY,,35.04202,-85.31947,,
751,751,13TH ST AND GROVE ST,,35.0425,-85.31896,,
752,752,BOYNTON DR AT RENAISSANCE,,35.04344,-85.31913,,
753,753,BOYNTON DR AND GATEWAY AVE,,35.04548,-85.31991,,
754,754,GATEWAY AVE AT J.C. TOWERS,,35.04689,-85.31873,,
755,755,BOYNTON DR AND M.L. KING BLVD,,35.04843,-85.31873,,
756,756,BOYNTON DR AT BOYNTON TERR APARTMENTS,,35.04691,-85.32028,,
757,757,BOYNTON DR AT THE OVERLOOK,,35.04503,-85.31993,,
758,758,BOYNTON DR AT RENAISSANCE,,35.04338,-85.31916,,
759,759,GROVE ST AND GROVE ST CT,,35.04344,-85.31842,,
760,760,12TH ST AND GROVE ST,,35.04484,-85.31742,,
761,761,12TH ST AT HUMAN SERVICES,,35.04361,-85.31595,,
762,762,12TH ST AND POPLAR ST,,35.04327,-85.3156,,
763,763,12TH ST AND CARTER ST,,35.04246,-85.31354,,
764,764,14TH ST AND CARTER ST,,35.04022,-85.31468,,
765,765,FORT ST AND MAIN ST,,35.03872,-85.3144,,
766,766,BROAD ST AND MAIN ST,,35.03771,-85.31173,,
767,767,COWART ST AND MAIN ST,,35.03722,-85.31041,,
768,768,MAIN ST AND WILLIAMS ST,,35.03684,-85.30939,,
769,769,MAIN ST AND LONG ST,,35.03652,-85.30842,,
771,771,KING ST AND MARKET ST,,35.03946,-85.3075,,
773,773,7TH ST AND BROAD ST,,35.04842,-85.31025,,
774,774,AMNICOLA HWY AND CRUTCHFIELD ST,,35.06992,-85.27027,,
775,775,AMNICOLA HWY AND LATTA ST,,35.07091,-85.26976,,
776,776,AMNICOLA HWY AND APPLING ST,,35.07306,-85.26859,,
777,777,AMNICOLA HWY AND STUART ST,,35.07747,-85.26616,,
778,778,AMNICOLA HWY AT POLICE SERVICE BLDG,,35.08212,-85.26358,,
779,779,CHATTANOOGA STATE COMMUNITY COLLEGE,,35.09976,-85.23829,,
780,780,AMNICOLA HWY AT OLAN MILLS,,35.09661,-85.24258,,
782,782,AMNICOLA HWY AT PEPSI BOTTLING,,35.08503,-85.26236,,
783,783,RIVERSIDE DR AND WILCOX BLVD,,35.05849,-85.27601,,
784,784,BATTERY PL AND MABEL ST,,35.05156,-85.29942,,
785,785,SHUTTLE PARK SOUTH,,35.03788,-85.30689,,
789,789,4TH ST AND BROAD ST,,35.05251,-85.31061,,
793,793,3RD ST AND BROAD ST,,35.05334,-85.3109,,
794,794,5TH ST AND BROAD ST,,35.05073,-85.31076,,
795,795,10TH ST AND BROAD ST,,35.04503,-85.31033,,
796,796,11TH ST AT MARRIOTT,,35.04389,-85.31188,,
800,800,14TH ST AND MARKET ST,,35.03953,-85.30766,,
801,801,2ND ST AND MARKET ST,,35.05436,-85.30964,,
802,802,FRAZIER AVE AND TREMONT ST,,35.06165,-85.30473,,
803,803,2ND ST AND MARKET ST,,35.0549,-85.30974,,
805,805,HOUSTON ST AT WAREHOUSE ROW,,35.04219,-85.30842,,
806,806,11TH ST AND HOUSTON ST,,35.04265,-85.30669,,
807,807,10TH ST AND HOUSTON ST,,35.04363,-85.30621,,
808,808,HOUSTON ST AND M.L. KING BLVD,,35.04433,-85.30576,,
811,811,DOUGLAS ST AND M.L. KING BLVD,,35.04377,-85.30314,,
812,812,M.L. KING BLVD AND UNIVERSITY ST,,35.04327,-85.30189,,
813,813,M.L. KING BLVD AND PEEPLES ST,,35.0423,-85.29907,,
814,814,M.L. KING BLVD AND PALMETTO ST,,35.04179,-85.29734,,
815,815,M.L. KING BLVD AND MAGNOLIA ST,,35.04131,-85.29636,,
816,816,M.L. KING BLVD AND PARK AVE,,35.04082,-85.2951,,
817,817,FAIRVIEW AVE AND M.L. KING BLVD,,35.04039,-85.29397,,
818,818,CENTRAL AVE AND M.L. KING BLVD,,35.03982,-85.29241,,
819,819,BAILEY AVE AND NATIONAL AVE,,35.03751,-85.28647,,
820,820,BAILEY AVE AND SPRUCE ST,,35.03712,-85.28567,,
821,821,BAILEY AVE AND HOLTZCLAW AVE,,35.03657,-85.28455,,
822,822,BAILEY AVE AND GREENWOOD AVE,,35.03597,-85.28302,,
823,823,BAILEY AVE AND HIGHLAND PARK AVE,,35.03552,-85.2818,,
824,824,BAILEY AVE AND HOLLY ST,,35.035,-85.28041,,
825,825,BAILEY AVE AND HICKORY ST,,35.03449,-85.27903,,
826,826,BAILEY AVE AND HAWTHORNE ST,,35.034,-85.27769,,
827,827,BAILEY AVE AND ORCHARD KNOB AVE,,35.03346,-85.27625,,
828,828,BAILEY AVE AND BEECH ST,,35.0328,-85.27442,,
829,829,BAILEY AVE AND WILLOW ST,,35.03243,-85.27344,,
830,830,BAILEY AVE AND WATKINS ST,,35.03071,-85.26891,,
831,831,BAILEY AVE AND CHAMBERLAIN AVE,,35.03094,-85.26695,,
832,832,BAILEY AVE AND DUNCAN AVE,,35.03161,-85.266,,
833,833,MCCALLIE AVE AT FIRST LUTHERAN CHURCH,,35.03073,-85.26088,,
834,834,BRAINERD RD AND SEMINOLE DR,,35.02757,-85.25505,,
835,835,BRAINERD RD AND ELMWOOD DR,,35.02719,-85.25416,,
836,836,BRAINERD RD AND ROSEMONT DR,,35.02608,-85.25158,,
837,837,BRAINERD RD AND TUNNEL BLVD,,35.02564,-85.2488,,
838,838,BRAINERD RD AND VISTA DR,,35.02488,-85.24781,,
839,839,BRAINERD RD AND GERMANTOWN RD,,35.02397,-85.24608,,
840,840,BRAINERD RD AND ORIOLE DR,,35.02325,-85.24452,,
841,841,BRAINERD RD AT FOOD LION,,35.0226,-85.24287,,
842,842,BRAINERD RD AND TALLEY RD,,35.02171,-85.24157,,
843,843,BRAINERD RD AND MANOR RD,,35.02026,-85.24052,,
844,844,BRAINERD RD AND BELVOIR AVE,,35.01896,-85.24001,,
845,845,BRAINERD RD AND BROOKFIELD AVE,,35.01731,-85.23807,,
846,846,BRAINERD RD AND TUXEDO AVE,,35.01677,-85.23713,,
848,848,BRAINERD RD AND SWEETBRIAR AVE,,35.01554,-85.2347,,
849,849,BRAINERD RD AND SEQUOIA DR,,35.01521,-85.23384,,
850,850,BRAINERD RD AND LONSDALE DR,,35.01467,-85.23249,,
851,851,BRAINERD RD AND WOODVALE AVE,,35.01407,-85.23116,,
852,852,BRAINERD RD AND LARCHMONT AVE,,35.0135,-85.22977,,
853,853,BRAINERD RD AND MOORE RD,,35.01296,-85.22852,,
854,854,BRAINERD RD AND LOVELL AVE,,35.01242,-85.22733,,
855,855,BRAINERD RD AND ST MARKS AVE,,35.01199,-85.22615,,
856,856,BRAINERD RD AND HOWELL AVE,,35.01155,-85.22502,,
857,857,BRAINERD RD AND MCBRIEN RD,,35.01078,-85.22297,,
858,858,BRAINERD RD AND BROOKS AVE,,35.0105,-85.22222,,
859,859,BRAINERD RD AND HUNT AVE,,35.01017,-85.22135,,
860,860,BRAINERD RD AT HOLIDAY BOWL,,35.01023,-85.2186,,
861,861,BRAINERD RD AND EASTGATE LOOP,,35.01063,-85.21776,,
862,862,BRAINERD RD AND EASTGATE LOOP,,35.01141,-85.21505,,
864,864,EASTGATE TOWN CENTER,,35.00852,-85.2137,,
866,866,CORNELISON RD AT POST OFFICE,,35.00629,-85.21013,,
867,867,GREENWAY VIEW DR AT WALMART,,35.00912,-85.20692,,
868,868,GREENWAY VIEW DR AND MARLIN RD,,35.0103,-85.20781,,
869,869,BRAINERD RD AND GREENWAY VIEW DR,,35.01381,-85.21087,,
870,870,BRAINERD RD AT CONOCO,,35.01596,-85.20862,,
871,871,BRAINERD RD AT BIG LOTS,,35.01682,-85.20722,,
872,872,BRAINERD RD AND LEE HWY,,35.01783,-85.2056,,
873,873,AIKEN DR AND LEE HWY,,35.01979,-85.20245,,
874,874,CHICKAMAUGA RD AND LEE HWY,,35.02172,-85.19935,,
875,875,LEE HWY AND WHIRLAWAY DR,,35.02283,-85.1976,,
876,876,CHARLES DR AND LEE HWY,,35.02363,-85.19633,,
877,877,JIM SNOW WAY (PROVENCE ST) AND LEE HWY,,35.02486,-85.19433,,
879,879,LEE HWY AT SPORTS BARN,,35.02793,-85.18924,,
880,880,LEE HWY AND VANCE RD,,35.02915,-85.18721,,
881,881,LEE HWY AND PERIMETER DR,,35.03035,-85.1856,,
882,882,CUSTOMER DELIGHT DR AND LEE HWY,,35.0335,-85.18032,,
883,883,DUPRE RD AND LEE HWY,,35.03456,-85.17867,,
884,884,CIRCLE DR AND LEE HWY,,35.03758,-85.17408,,
885,885,LEE HWY AT RYANS,,35.03928,-85.17136,,
886,886,HICKORY VALLEY RD AND LEE HWY,,35.04037,-85.16963,,
887,887,LEE HWY AT HAMILTON INN,,35.04175,-85.16742,,
888,888,CONNER LN AND LEE HWY,,35.04231,-85.16653,,
889,889,LEE HWY AND ROBINSON DR,,35.04314,-85.16519,,
890,890,LEE HWY AND PARK DR,,35.04377,-85.16422,,
891,891,LEE HWY AND SHALLOWFORD RD,,35.04464,-85.16279,,
893,893,CENTER ST AND SHALLOWFORD RD,,35.0441,-85.16035,,
894,894,SHALLOWFORD RD AT RED ROOF INN,,35.04366,-85.15911,,
897,897,BAMS DR AND HAMILTON PLACE BLVD,,35.04079,-85.15508,,
898,898,HAMILTON PLACE BLVD AT ACROPOLIS,,35.03974,-85.15572,,
899,899,HAMILTON PLACE MALL,,35.03334,-85.15979,,
900,900,BRAINERD RD AND PHILS DR,,35.01787,-85.17319,,
901,901,BRAINERD RD AND CONCORD RD,,35.01822,-85.1719,,
902,902,BRAINERD RD AND PANORAMA DR,,35.01784,-85.16871,,
903,903,BRAINERD RD AT KENMOOR,,35.01634,-85.1653,,
904,904,BRAINERD RD AND GUNBARREL RD,,35.0153,-85.16376,,
905,905,BRAINERD RD AND JOINER RD,,35.01386,-85.16146,,
906,906,BRAINERD RD AND STRATTON PL DR,,35.01311,-85.15985,,
907,907,BRAINERD RD AND STRATMAN CIR,,35.01264,-85.15885,,
908,908,BRAINERD RD AT FIRE STATION 21,,35.01063,-85.15504,,
909,909,BRAINERD RD AND JENKINS RD,,35.00829,-85.15348,,
910,910,GRAYS RD AND JENKINS RD,,35.01223,-85.15105,,
911,911,GRAYS RD AT 1625,,35.01477,-85.14973,,
912,912,GRAYS RD AT 1704,,35.01566,-85.1493,,
913,913,GRAYS RD AT 1712,,35.01656,-85.14892,,
914,914,GRAYS RD AT 1725,,35.01867,-85.148,,
915,915,GRAYS RD AND IGOU GAP RD,,35.02256,-85.14631,,
916,916,IGOU GAP RD AND TERRI LYNN DR,,35.02316,-85.14731,,
917,917,IGOU CROSSING DR AND IGOU GAP RD,,35.02395,-85.14947,,
918,918,IGOU PL DR AND IGOU GAP RD,,35.02459,-85.15121,,
920,920,GUNBARREL RD AND IGOU GAP RD,,35.02683,-85.15717,,
921,921,GUNBARREL RD AND GOODWIN RD,,35.03003,-85.15559,,
922,922,HAMILTON PLACE BLVD AT MARSHALLS,,35.03189,-85.15941,,
923,923,GUNBARREL RD AND HAMILTON PLACE BLVD,,35.03287,-85.1541,,
924,924,GUNBARREL RD AT FAMOUS DAVES,,35.03507,-85.15287,,
925,925,COMMONS BLVD AND GUNBARREL RD,,35.03673,-85.15195,,
926,926,SHALLOWFORD RD AND SHALLOWFORD VILLAGE DR,,35.04337,-85.15801,,
927,927,CENTER ST AND SHALLOWFORD RD,,35.04392,-85.15931,,
928,928,LEE HWY AT BI LO,,35.04445,-85.16337,,
929,929,LEE HWY AND ROBINSON DR,,35.04325,-85.16527,,
930,930,CONNER LN AND LEE HWY,,35.04235,-85.16643,,
931,931,HICKORY VALLEY RD AND LEE HWY,,35.04101,-85.16875,,
932,932,LEE HWY AT RYANS,,35.03936,-85.17146,,
933,933,LEE HWY AT TENNESSEE CHILDRENS HOME,,35.03768,-85.17414,,
934,934,LEE HWY AT MCKAYS,,35.03487,-85.17862,,
935,935,LEE HWY AND PERIMETER DR,,35.03064,-85.1854,,
936,936,LEE HWY AND VANCE RD,,35.02953,-85.18718,,
939,939,JIM SNOW WAY (PROVENCE ST) AND LEE HWY,,35.02512,-85.19417,,
941,941,AIRPORT RD AND LEE HWY,,35.02264,-85.19808,,
942,942,LEE HWY AT CAPITAL TOYOTA,,35.02085,-85.201,,
943,943,LEE HWY AT HERB ADCOX,,35.01993,-85.20247,,
946,946,BRAINERD RD (LEE HWY) AT INFINITI,,35.01572,-85.20919,,
947,947,BRAINERD RD AND GREENWAY VIEW DR,,35.01326,-85.21032,,
948,948,GREENWAY VIEW DR AND MARLIN RD,,35.01019,-85.20792,,
949,949,GREENWAY VIEW DR AT WALMART,,35.00837,-85.20682,,
950,950,CORNELISON RD AT POST OFFICE,,35.00624,-85.21029,,
951,951,EASTGATE LOOP AT CASTLE DENTAL,,35.00839,-85.21208,,
952,952,BRAINERD RD AT KRISPY KREME,,,,,
953,953,BRAINERD RD AT SUBWAY,,35.01027,-85.219,,
954,954,BRAINERD RD AND PISGAH AVE,,35.01011,-85.22078,,
955,955,BRAINERD RD AND MCBRIEN RD,,35.01086,-85.22278,,
956,956,BRAINERD RD AND HOWELL AVE,,35.01159,-85.22472,,
957,957,BRAINERD RD AND ST MARKS AVE,,35.01206,-85.22591,,
959,959,BRAINERD RD AND LARCHMONT AVE,,35.01354,-85.22952,,
960,960,BRAINERD RD AND WOODVALE AVE,,35.01411,-85.23087,,
961,961,BRAINERD RD AND PARKDALE AVE,,35.0146,-85.23206,,
962,962,BRAINERD RD AND SEQUOIA DR,,35.01528,-85.23376,,
963,963,BRAINERD RD AND TUXEDO AVE,,35.01679,-85.23685,,
964,964,BRAINERD RD AT BI LO,,35.01782,-85.23845,,
966,966,BRAINERD RD AND MANOR RD,,35.02019,-85.24029,,
967,967,BRAINERD RD AND TALLEY RD,,35.02163,-85.24133,,
968,968,BRAINERD RD AT ECPC (ELECTRONIC COMPUTER PROGRAMMING COLLEGE),,35.02252,-85.24241,,
969,969,BRAINERD RD AND ORIOLE DR (3661 BRAINERD),,35.02318,-85.24411,,
970,970,BRAINERD RD AT DOLLAR GENERAL,,35.02363,-85.24517,,
971,971,BRAINERD RD AND GERMANTOWN RD,,35.02435,-85.24681,,
972,972,BRAINERD RD AND TUNNEL BLVD,,35.02572,-85.24853,,
974,974,BRAINERD RD AND BROW TERR,,35.02699,-85.25344,,
975,975,BRAINERD RD AND SEMINOLE DR,,35.02763,-85.25473,,
976,976,MCCALLIE AVE AT FIRST LUTHERAN CHURCH,,35.03114,-85.26163,,
977,977,GLENWOOD DR AND MCCALLIE AVE,,35.03199,-85.26418,,
978,978,KILMER ST AND MCCALLIE AVE,,35.03243,-85.26536,,
979,979,DERBY ST AND MCCALLIE AVE,,35.03289,-85.26657,,
980,980,MCCALLIE AVE AT PARKRIDGE MEDICAL CENTER,,35.0336,-85.26846,,
981,981,KELLY ST AND MCCALLIE AVE,,35.03435,-85.27045,,
982,982,MCCALLIE AVE AND WILLOW ST,,35.03479,-85.27165,,
983,983,BEECH ST AND MCCALLIE AVE,,35.03535,-85.27312,,
984,984,MCCALLIE AVE AND ORCHARD KNOB AVE,,35.03583,-85.27444,,
985,985,HAWTHORNE ST AND MCCALLIE AVE,,35.03639,-85.27596,,
986,986,HICKORY ST AND MCCALLIE AVE,,35.0369,-85.27735,,
987,987,HOLLY ST AND MCCALLIE AVE,,35.03741,-85.27871,,
988,988,HIGHLAND PARK AVE AND MCCALLIE AVE,,35.03793,-85.28011,,
989,989,GREENWOOD AVE AND MCCALLIE AVE,,35.03837,-85.28129,,
990,990,HOLTZCLAW AVE AND MCCALLIE AVE,,35.03885,-85.28261,,
991,991,MCCALLIE AVE AT WARNER PARK,,35.03963,-85.28462,,
992,992,MCCALLIE AVE AND ONEAL ST,,35.04139,-85.28952,,
993,993,CENTRAL AVE AND MCCALLIE AVE,,35.04207,-85.29135,,
994,994,FORTWOOD PL AND MCCALLIE AVE,,35.04254,-85.29259,,
995,995,MCCALLIE AVE AND PALMETTO ST,,35.04373,-85.29569,,
996,996,LINDSAY ST AND MCCALLIE AVE,,35.04741,-85.30542,,
997,997,7TH ST AND WALNUT ST,,35.04845,-85.30727,,
998,998,7TH ST AND CHERRY ST,,35.04837,-85.30834,,
999,999,7TH ST AND MARKET ST,,35.04834,-85.30931,,
1000,1000,BROAD ST AT BEUEHLERS GROCERY,,35.05105,-85.31045,,
1001,1001,LEE HWY AND PARK DR,,35.04399,-85.16408,,
1003,1003,GUNBARREL RD AT MEMORIAL ATRIUM,,35.03038,-85.15555,,
1004,1004,GUNBARREL RD AND JARNIGAN RD,,35.02873,-85.15647,,
1015,1015,BRAINERD RD AT FIRE STATION 21,,35.01089,-85.15526,,
1016,1016,BRAINERD RD AT ADVANCED AUTO PARTS,,35.01215,-85.1576,,
1017,1017,BRAINERD RD AT ST MARTINS EPISCOPAL CHURCH,,35.01303,-85.1595,,
1018,1018,BRAINERD RD AND JOINER RD,,35.01375,-85.16108,,
1019,1019,BRAINERD RD AND GUNBARREL RD,,35.01512,-85.1634,,
1020,1020,BRAINERD RD AT MERIDIAN APARTMENTS,,35.01596,-85.16461,,
1021,1021,BRAINERD RD AT MERIDIAN APARTMENTS,,35.01691,-85.16646,,
1022,1022,BRAINERD RD AND BUNKER HILL RD,,35.01773,-85.1684,,
1023,1023,BRAINERD RD AT CONCORD BAPTIST CHURCH,,35.01819,-85.17192,,
1025,1025,8TH ST AND HOUSTON ST,,35.04581,-85.30495,,
1026,1026,HOUSTON ST AND MCCALLIE AVE,,35.04664,-85.30427,,
1027,1027,4TH ST AND HOUSTON ST,,35.05113,-85.30181,,
1028,1028,CUMBERLAND ST (GARFIELD AVE) AND HOLTZCLAW AVE,,35.04425,-85.27952,,
1029,1029,CITICO AVE AND HOLTZCLAW AVE,,35.04863,-85.27714,,
1033,1033,GERMANTOWN RD AND RIDGESIDE RD,,35.03176,-85.2422,,
1034,1034,GERMANTOWN RD AND TERRELL ST,,35.0324,-85.24188,,
1035,1035,GERMANTOWN RD AND MENLO ST,,35.0333,-85.24147,,
1036,1036,MAY ST AND TUNNEL BLVD,,35.03663,-85.24101,,
1037,1037,SHALLOWFORD RD AND TUNNEL BLVD (SECOND BAPTIST CHURCH),,35.03785,-85.24026,,
1038,1038,BELMEADE AVE AND TUNNEL BLVD,,35.03913,-85.23974,,
1039,1039,LASALLE ST AND TUNNEL BLVD,,35.04126,-85.23901,,
1040,1040,HOYT ST AND TUNNEL BLVD,,35.04232,-85.23861,,
1041,1041,THROUGH ST AND TUNNEL BLVD,,35.0434,-85.23802,,
1042,1042,JONES ST AND TUNNEL BLVD,,35.0459,-85.23762,,
1043,1043,CAROUSEL RD AND GREENWOOD RD,,35.04964,-85.24314,,
1044,1044,GREENWOOD RD AND HILLWOOD DR,,35.0511,-85.24246,,
1047,1047,DEE DR AND EMMA KATE DR,,35.05533,-85.24306,,
1048,1048,DEE DR AT 1318,,35.0551,-85.24152,,
1049,1049,DEE DR AND GREENWOOD RD,,35.05438,-85.2408,,
1051,1051,CREST RD AND LIGHTFOOT MILL RD,,35.06551,-85.24117,,
1052,1052,CREST RD AND GLASS ST,,35.06712,-85.24327,,
1054,1054,NEW JERSEY AVE AND NEW YORK AVE,,35.06929,-85.23459,,
1055,1055,NEW YORK AVE AT 3185,,35.06822,-85.23104,,
1057,1057,TOWERWAY DR AND TUNNEL BLVD,,35.06716,-85.22836,,
1058,1058,ACUFF ST AND TUNNEL BLVD,,35.0648,-85.2281,,
1059,1059,COGSWELL ST AND TUNNEL BLVD,,35.06285,-85.22845,,
1060,1060,BRIAR CIR AND TUNNEL BLVD,,35.06048,-85.22965,,
1061,1061,GREEN FOREST DR AND TUNNEL BLVD,,35.0574,-85.23136,,
1064,1064,PERSIMMON LN AND TUNNEL BLVD,,35.05204,-85.23476,,
1065,1065,TUNNEL BLVD AT 1819,,35.04985,-85.23599,,
1066,1066,HILLWOOD DR AND TUNNEL BLVD,,35.04872,-85.23659,,
1068,1068,TUNNEL BLVD AND WILCOX BLVD,,35.04675,-85.23748,,
1069,1069,JONES ST AND TUNNEL BLVD,,35.04596,-85.23772,,
1070,1070,GAY ST AND TUNNEL BLVD,,35.04459,-85.23782,,
1071,1071,THROUGH ST AND TUNNEL BLVD,,35.04354,-85.23807,,
1072,1072,HOYT ST AND TUNNEL BLVD,,35.04254,-85.23863,,
1073,1073,LASALLE ST AND TUNNEL BLVD,,35.04137,-85.23912,,
1074,1074,BELMEADE AVE AND TUNNEL BLVD,,35.03933,-85.24006,,
1075,1075,SHALLOWFORD RD AND TUNNEL BLVD,,35.03839,-85.24012,,
1076,1076,MAY ST AND TUNNEL BLVD (FRANKS STORE),,35.03686,-85.24088,,
1077,1077,GERMANTOWN RD AND TUNNEL BLVD,,35.03533,-85.2419,,
1078,1078,GERMANTOWN RD AND MENLO ST,,35.03345,-85.24147,,
1079,1079,GERMANTOWN RD AND RIDGESIDE RD,,35.03193,-85.24223,,
1080,1080,GERMANTOWN RD AND ROGERS RD,,35.03049,-85.24301,,
1082,1082,GERMANTOWN RD AND MONTVIEW DR,,35.02683,-85.245,,
1084,1084,MAIN ST AND ROSSVILLE AVE,,35.03551,-85.30553,,
1085,1085,MAIN ST AND WILHOIT ST,,35.03483,-85.30405,,
1086,1086,MAIN ST AND WASHINGTON ST,,35.03432,-85.30271,,
1087,1087,ADAMS ST AND MAIN ST,,35.03384,-85.30146,,
1088,1088,JEFFERSON ST AND MAIN ST,,35.03338,-85.3002,,
1089,1089,MADISON ST AND MAIN ST,,35.03288,-85.29888,,
1090,1090,CENTRAL AVE AND MAIN ST,,35.03207,-85.29683,,
1091,1091,FAGAN ST AND MAIN ST,,35.03146,-85.2951,,
1092,1092,MAIN ST AND POLK ST,,35.03086,-85.29348,,
1093,1093,GULF ST AND MAIN ST,,35.02965,-85.29016,,
1094,1094,HOLTZCLAW AVE AND MAIN ST,,35.02899,-85.28839,,
1095,1095,GREENWOOD AVE AND MAIN ST,,35.02851,-85.28742,,
1096,1096,MAIN ST AND WATAUGA AVE,,35.02787,-85.28532,,
1097,1097,HOLLY ST AND MAIN ST,,35.02749,-85.28423,,
1099,1099,MAIN ST AND ORCHARD KNOB AVE,,35.02612,-85.28019,,
1100,1100,MAIN ST AND MULBERRY ST,,35.02546,-85.27835,,
1101,1101,MAIN ST AND WILLOW ST,,35.0251,-85.27739,,
1102,1102,KELLY ST AND MAIN ST,,35.02472,-85.27634,,
1103,1103,LYERLY ST AND MAIN ST,,35.02393,-85.27425,,
1104,1104,MAIN ST AND WATKINS ST,,35.02341,-85.27285,,
1105,1105,BUCKLEY ST AND MAIN ST,,35.02299,-85.27172,,
1106,1106,DODDS AVE AND MAIN ST,,35.02228,-85.2698,,
1107,1107,16TH ST AND DODDS AVE,,35.02089,-85.27056,,
1108,1108,17TH ST AND DODDS AVE,,35.02,-85.27118,,
1109,1109,18TH ST AND DODDS AVE,,35.01933,-85.27164,,
1110,1110,19TH ST AND DODDS AVE,,35.01816,-85.27227,,
1111,1111,21ST ST AND DODDS AVE,,35.01692,-85.27294,,
1112,1112,23RD ST AND DODDS AVE,,35.01599,-85.27359,,
1113,1113,23RD ST AND BUCKLEY ST,,35.01625,-85.27471,,
1114,1114,4TH AVE AND 23RD ST,,35.01766,-85.27995,,
1115,1115,4TH AVE AND 25TH ST PL,,35.01451,-85.28157,,
1116,1116,4TH AVE AND 26TH ST,,35.01377,-85.28197,,
1117,1117,4TH AVE AND FOUST ST,,35.01303,-85.28237,,
1118,1118,4TH AVE AND 27TH ST,,35.0123,-85.28278,,
1119,1119,5TH AVE AND 28TH ST,,35.0111,-85.28242,,
1120,1120,6TH AVE AND 28TH ST,,35.01067,-85.2813,,
1121,1121,28TH ST AND DODDS AVE,,35.00913,-85.27722,,
1122,1122,29TH ST AND DODDS AVE,,35.0081,-85.27762,,
1123,1123,30TH ST AND DODDS AVE,,35.00693,-85.27819,,
1124,1124,31ST ST AND DODDS AVE,,35.00583,-85.27892,,
1125,1125,32ND ST AND DODDS AVE,,35.00471,-85.27955,,
1126,1126,33RD ST AND DODDS AVE,,35.0035,-85.28022,,
1127,1127,34TH ST AND DODDS AVE,,35.00248,-85.28078,,
1128,1128,36TH ST AND DODDS AVE,,35.00064,-85.2818,,
1129,1129,37TH ST AND DODDS AVE,,34.99944,-85.28246,,
1130,1130,38TH ST AND DODDS AVE,,34.99835,-85.28273,,
1131,1131,41ST ST AND DODDS AVE,,34.99551,-85.28428,,
1132,1132,42ND ST AND DODDS AVE,,34.99427,-85.28493,,
1133,1133,43RD ST AND DODDS AVE,,34.99293,-85.28567,,
1134,1134,44TH ST AND DODDS AVE,,34.99159,-85.28636,,
1136,1136,49TH ST AND ENGLISH AVE,,34.98692,-85.28844,,
1139,1139,BEECH ST AND MAIN ST,,35.02585,-85.27943,,
1142,1142,47TH ST AND DODDS AVE,,34.98883,-85.28779,,
1143,1143,46TH ST AND DODDS AVE,,34.98969,-85.28733,,
1144,1144,45TH ST AND DODDS AVE,,34.99039,-85.28661,,
1145,1145,44TH ST AND DODDS AVE,,34.99126,-85.28647,,
1146,1146,43RD ST AND DODDS AVE,,34.99263,-85.28572,,
1147,1147,42ND ST AND DODDS AVE,,34.99398,-85.28502,,
1148,1148,39TH ST AND DODDS AVE,,34.99724,-85.28324,,
1149,1149,38TH ST AND DODDS AVE,,34.99803,-85.28283,,
1150,1150,37TH ST AND DODDS AVE,,34.99867,-85.28246,,
1151,1151,36TH ST AND DODDS AVE,,35.00022,-85.28197,,
1152,1152,34TH ST AND DODDS AVE,,35.00212,-85.28092,,
1153,1153,33RD ST AND DODDS AVE,,35.00327,-85.28029,,
1154,1154,32ND ST AND DODDS AVE,,35.0044,-85.27967,,
1155,1155,31ST ST AND DODDS AVE,,35.00549,-85.27908,,
1156,1156,30TH ST AND DODDS AVE,,35.00661,-85.27847,,
1157,1157,29TH ST AND DODDS AVE,,35.00775,-85.27784,,
1159,1159,4TH AVE AND 28TH ST,,35.01124,-85.28315,,
1160,1160,4TH AVE AND 27TH ST,,35.01193,-85.28289,,
1161,1161,4TH AVE AND FOUST ST,,35.01274,-85.28245,,
1162,1162,4TH AVE AND 26TH ST,,35.01354,-85.28202,,
1163,1163,4TH AVE AND 25TH ST PL,,35.01417,-85.28168,,
1164,1164,4TH AVE AND 24TH ST PL,,35.01516,-85.28116,,
1168,1168,18TH ST AND DODDS AVE,,35.01899,-85.27164,,
1169,1169,16TH ST AND DODDS AVE,,35.0206,-85.27054,,
1171,1171,MAIN ST AT 2501,,35.02265,-85.27102,,
1172,1172,MAIN ST AND WATKINS ST,,35.02339,-85.27297,,
1173,1173,LYERLY ST AND MAIN ST,,35.02391,-85.27433,,
1174,1174,KELLY ST AND MAIN ST,,35.02443,-85.27569,,
1175,1175,MAIN ST AND WILLOW ST,,35.02494,-85.27701,,
1177,1177,MAIN ST AND ORCHARD KNOB AVE,,35.02597,-85.27989,,
1178,1178,HAWTHORNE ST AND MAIN ST,,35.0265,-85.28133,,
1179,1179,HICKORY ST AND MAIN ST,,35.02697,-85.28265,,
1180,1180,HOLLY ST AND MAIN ST,,35.02748,-85.28408,,
1181,1181,HIGHLAND PARK AVE AND MAIN ST,,35.02796,-85.28542,,
1183,1183,GULF ST AND MAIN ST,,35.02961,-85.28992,,
1184,1184,FILMORE ST AND MAIN ST,,35.03018,-85.29146,,
1185,1185,MAIN ST AND POLK ST,,35.0306,-85.29264,,
1186,1186,FAGAN ST AND MAIN ST,,35.03123,-85.29434,,
1187,1187,CENTRAL AVE AND MAIN ST,,35.0319,-85.2961,,
1188,1188,MAIN ST AND SLAYTON ST,,35.03225,-85.29699,,
1189,1189,MADISON ST AND MAIN ST,,35.03292,-85.2988,,
1190,1190,JEFFERSON ST AND MAIN ST,,35.03347,-85.30025,,
1191,1191,MAIN ST AND WASHINGTON ST,,35.03429,-85.30241,,
1192,1192,MAIN ST AND WILHOIT ST,,35.03477,-85.30367,,
1193,1193,MAIN ST AND ROSSVILLE AVE,,35.03535,-85.30518,,
1194,1194,11TH ST AT PATTEN TOWERS,,35.04387,-85.30899,,
1195,1195,11TH ST AND LINDSAY ST,,35.0435,-85.30804,,
1196,1196,11TH ST AND NEWBY ST,,35.04319,-85.30732,,
1197,1197,11TH ST AND HOUSTON ST,,35.04298,-85.30677,,
1198,1198,11TH ST AND KING ST,,35.04269,-85.30597,,
1199,1199,11TH ST AND FOSTER ST,,35.04235,-85.30514,,
1200,1200,11TH ST AND DOUGLAS ST,,35.04204,-85.30435,,
1201,1201,11TH ST AND BALDWIN ST,,35.04088,-85.30138,,
1202,1202,11TH ST AND PEEPLES ST,,35.0401,-85.2995,,
1203,1203,11TH ST AND MAGNOLIA ST,,35.03934,-85.29767,,
1204,1204,11TH ST AND PARK AVE,,35.03878,-85.2962,,
1205,1205,11TH ST AND FAIRVIEW AVE,,35.03826,-85.2948,,
1206,1206,11TH ST AND CENTRAL AVE,,35.03779,-85.29354,,
1207,1207,13TH ST AND CENTRAL AVE,,35.03409,-85.29537,,
1209,1209,16TH ST AND CENTRAL AVE,,35.03125,-85.29682,,
1210,1210,17TH ST AND CENTRAL AVE,,35.03039,-85.29725,,
1211,1211,CENTRAL AVE AT 1923,,35.02744,-85.29885,,
1214,1214,23RD ST AND BURNETTE ST,,35.02341,-85.29513,,
1215,1215,23RD ST AND COMMERCE ST,,35.02293,-85.29386,,
1216,1216,23RD ST AND GIFFORD ST,,35.02251,-85.2927,,
1217,1217,23RD ST AND HOLTZCLAW AVE,,35.02223,-85.29192,,
1218,1218,23RD ST AND HIGHLAND PARK AVE,,35.02151,-85.28987,,
1219,1219,23RD ST AND HOLLY ST,,35.02101,-85.28846,,
1220,1220,23RD ST AND HICKORY ST,,35.0205,-85.28699,,
1221,1221,23RD ST AND LYNNBROOK AVE,,35.01969,-85.2847,,
1224,1224,4TH AVE AND 23RD ST,,35.01795,-85.27995,,
1225,1225,4TH AVE AND 24TH ST PL,,35.01548,-85.28106,,
1226,1226,4TH AVE AND 28TH ST,,35.01144,-85.28318,,
1227,1227,4TH AVE AND 29TH ST,,35.00979,-85.28405,,
1228,1228,4TH AVE AND 30TH ST,,35.00893,-85.28451,,
1229,1229,4TH AVE AND 31ST ST,,35.00824,-85.28488,,
1230,1230,4TH AVE AND 32ND ST,,35.00661,-85.28615,,
1231,1231,4TH AVE AND 33RD ST,,35.00565,-85.28644,,
1232,1232,4TH AVE AND 34TH ST,,35.00486,-85.28685,,
1233,1233,4TH AVE AND 35TH ST,,35.00348,-85.28741,,
1234,1234,4TH AVE AND 36TH ST,,35.00225,-85.28804,,
1235,1235,4TH AVE AND 37TH ST,,35.00091,-85.28874,,
1236,1236,3RD AVE AND 37TH ST,,35.00108,-85.2897,,
1237,1237,2ND AVE AND 37TH ST,,35.0015,-85.29081,,
1238,1238,38TH ST AND ROSSVILLE BLVD,,35.00027,-85.2921,,
1239,1239,39TH ST AND ROSSVILLE BLVD,,34.999,-85.29183,,
1240,1240,40TH ST AND ROSSVILLE BLVD,,34.99777,-85.29159,,
1241,1241,41ST ST AND ROSSVILLE BLVD,,34.99653,-85.29133,,
1242,1242,42ND ST AND ROSSVILLE BLVD,,34.99531,-85.29108,,
1243,1243,ROSSVILLE BLVD AT AUTO ZONE,,34.99324,-85.29068,,
1244,1244,45TH ST AND ROSSVILLE BLVD,,34.9915,-85.29033,,
1245,1245,ROSSVILLE BLVD AND WORKMAN RD,,34.99008,-85.29004,,
1246,1246,48TH ST AND ROSSVILLE BLVD,,34.98786,-85.28881,,
1247,1247,50TH ST AND ENGLISH AVE,,34.98605,-85.28817,,
1253,1253,ROSSVILLE BLVD AT WENDYS,,34.98849,-85.28903,,
1254,1254,47TH ST AND ROSSVILLE BLVD,,34.98935,-85.28957,,
1255,1255,46TH ST AND ROSSVILLE BLVD,,34.99046,-85.2899,,
1256,1256,45TH ST AND ROSSVILLE BLVD,,34.99137,-85.29008,,
1257,1257,44TH ST AND ROSSVILLE BLVD,,34.99224,-85.29028,,
1258,1258,6TH AVE AND ROSSVILLE BLVD,,34.993,-85.29043,,
1259,1259,43RD ST AND ROSSVILLE BLVD,,34.99443,-85.29071,,
1261,1261,40TH ST AND ROSSVILLE BLVD,,34.99736,-85.29128,,
1262,1262,39TH ST AND ROSSVILLE BLVD,,34.99862,-85.29152,,
1264,1264,38TH ST AND CLIO,,35.00013,-85.29084,,
1265,1265,3RD AVE AND 37TH ST,,35.00088,-85.28985,,
1266,1266,4TH AVE AND 37TH ST,,35.00076,-85.28858,,
1267,1267,4TH AVE AND 36TH ST,,35.00189,-85.28798,,
1268,1268,4TH AVE AND 35TH ST,,35.00307,-85.28736,,
1269,1269,4TH AVE AND 34TH ST,,35.00436,-85.28668,,
1270,1270,4TH AVE AND 33RD ST,,35.00541,-85.28621,,
1271,1271,4TH AVE AND 32ND ST,,35.00658,-85.28563,,
1272,1272,4TH AVE AND 31ST ST,,35.00773,-85.28502,,
1273,1273,4TH AVE AND 30TH ST,,35.00873,-85.28451,,
1274,1274,4TH AVE AND 29TH ST,,35.00964,-85.28405,,
1275,1275,4TH AVE AND 28TH ST,,35.01115,-85.28327,,
1276,1276,23RD ST AND WILLOW ST,,35.01829,-85.28059,,
1278,1278,23RD ST AND ORCHARD KNOB AVE,,35.0194,-85.28354,,
1279,1279,23RD ST AND LYNNBROOK AVE,,35.01971,-85.2844,,
1282,1282,23RD ST AND HIGHLAND PARK AVE,,35.02152,-85.28954,,
1283,1283,23RD ST AND GREENWOOD AVE,,35.02187,-85.29057,,
1284,1284,23RD ST AND HOLTZCLAW AVE,,35.02221,-85.29154,,
1285,1285,23RD ST AND COMMERCE ST,,35.02302,-85.29368,,
1286,1286,23RD ST AND BURNETTE ST,,35.02347,-85.29489,,
1287,1287,23RD ST AND POLK ST,,35.02409,-85.29651,,
1288,1288,23RD ST AND FAGAN ST,,35.02452,-85.29767,,
1289,1289,DORRIS ST AND ROSSVILLE BLVD,,35.02528,-85.29847,,
1290,1290,CENTRAL AVE AND ROSSVILLE BLVD,,35.02607,-85.29909,,
1291,1291,CENTRAL AVE AT 1925,,35.02733,-85.29879,,
1292,1292,17TH ST AND CENTRAL AVE,,35.03004,-85.29729,,
1294,1294,CENTRAL AVE AND MAIN ST,,35.03165,-85.2964,,
1296,1296,13TH ST AND CENTRAL AVE,,35.03376,-85.29531,,
1297,1297,11TH ST AND CENTRAL AVE,,35.03758,-85.29329,,
1299,1299,10TH ST AND FAIRVIEW AVE,,35.03926,-85.29413,,
1300,1300,10TH ST AND PARK AVE,,35.03972,-85.29531,,
1301,1301,10TH ST AND MAGNOLIA ST,,35.04022,-85.29666,,
1302,1302,10TH ST AND PEEPLES ST,,35.04115,-85.29926,,
1303,1303,10TH ST AND BALDWIN ST,,35.04168,-85.30076,,
1304,1304,10TH ST AND UNIVERSITY ST,,35.04215,-85.30201,,
1305,1305,10TH ST AND DOUGLAS ST,,35.04263,-85.30329,,
1307,1307,10TH ST AND KING ST,,35.04338,-85.3053,,
1308,1308,10TH ST AND HOUSTON ST,,35.04368,-85.30602,,
1309,1309,10TH ST AND LINDSAY ST,,35.04417,-85.30734,,
1310,1310,10TH ST AND GEORGIA AVE,,35.04467,-85.30871,,
1351,1351,4TH ST AND MARKET ST,,35.05266,-85.30972,,
1353,1353,MARKET ST AT EPB,,35.04538,-85.30945,,
1354,1354,M.L. KING BLVD AND MARKET ST,,35.04598,-85.30952,,
1355,1355,BROAD ST (LEE HWY) AND CHARGER DR,,35.0153,-85.324,,
1357,1357,MARKET ST AT CHATTANOOGA CHOO CHOO,,35.03711,-85.30743,,
1358,1358,BROAD ST (LEE HWY) AND CHARGER DR,,35.01521,-85.32385,,
1360,1360,3RD ST AT CHATTANOOGA SCHOOL FOR THE ARTS AND SCIENCES (CSAS),,35.04977,-85.29534,,
1361,1361,8TH ST AND MARKET ST,,35.04734,-85.3094,,
1365,1365,JACKSON ST AND ORCHARD KNOB AVE,,35.04464,-85.26995,,
1366,1366,CLEVELAND AVE AND ORCHARD KNOB AVE,,35.04295,-85.27088,,
1369,1369,3RD ST AND PALMETTO ST,,35.04875,-85.2933,,
1371,1371,HWY 58 AND OAKHILL DR,,35.08498,-85.19695,,
1372,1372,HWY 58 AND MURRAY HILLS RD,,35.08389,-85.2032,,
1380,1380,3RD ST AT ORCHARD KNOB ELEMENTARY SCHOOL,,35.04033,-85.27057,,
1383,1383,CAMDEN ST AND CHAMBERLAIN AVE,,35.05273,-85.2559,,
1384,1384,BIRD ST AND GLASS ST,,35.06636,-85.24599,,
1386,1386,BONNY OAKS DR AND BRYANT ST,,35.0795,-85.22432,,
1387,1387,BONNY OAKS DR AND CHICKAMAUGA AVE,,35.08106,-85.21248,,
1388,1388,BONNY OAKS DR AT HILLCREST ELEMENTARY SCHOOL,,35.08137,-85.21062,,
1391,1391,MCCALLIE AVE AND WILLOW ST,,35.03467,-85.27189,,
1394,1394,BALTO ST AND CHAMBERLAIN AVE,,35.05065,-85.25714,,
1395,1395,CHAMBERLAIN AVE AND WILSON ST,,35.04956,-85.25773,,
1396,1396,CITICO AVE AND GLENWOOD DR,,35.04157,-85.25854,,
1397,1397,CENTRAL AVE AND MAIN ST,,35.03215,-85.29632,,
1398,1398,23RD ST AND ORCHARD KNOB AVE,,35.01938,-85.28372,,
1399,1399,23RD ST AT TOWN AND COUNTRY,,35.01899,-85.28269,,
1400,1400,23RD ST AT MAC TRUCK,,35.01909,-85.28257,,
1401,1401,23RD ST AND HICKORY ST,,35.02049,-85.2865,,
1406,1406,13TH ST AND BROAD ST,,35.03998,-85.30999,,
1407,1407,BROAD ST AND MAIN ST,,35.03788,-85.31118,,
1409,1409,19TH ST AND BROAD ST,,35.03439,-85.31311,,
1410,1410,21ST ST AND BROAD ST,,35.03275,-85.31411,,
1411,1411,33RD ST AND BROAD ST (LEE HWY),,35.01789,-85.32218,,
1412,1412,52ND ST AND ST ELMO AVE,,34.99163,-85.33101,,
1415,1415,25TH ST AND BROAD ST (LEE HWY),,35.02832,-85.31624,,
1417,1417,3RD ST AND MARKET ST,,35.05343,-85.30955,,
1419,1419,BAKER ST AND BARTON AVE,,35.06325,-85.29839,,
1420,1420,HIXSON PIKE AT 1324,,35.07203,-85.28871,,
1421,1421,HIXSON PIKE AT REGIONS BANK,,35.1129,-85.26344,,
1422,1422,HIXSON PIKE AND STAWBERRY LN,,35.12239,-85.24835,,
1423,1423,PICCADILLYS AT NORTHGATE MALL,,35.12893,-85.24077,,
1424,1424,HIXSON PIKE AND WESTWOOD AVE,,35.07428,-85.2883,,
1425,1425,HWY 153 AT KMART,,35.13529,-85.24646,,
1428,1428,3RD ST AND MARKET ST,,35.05357,-85.30975,,
1429,1429,FRAZIER AVE AND TAMPA ST,,35.06119,-85.30363,,
1431,1431,HIXSON PIKE AT HIGHLAND PEDIATRIC CLINIC,,35.12106,-85.24886,,
1432,1432,DUANE RD AND HIXSON PIKE,,35.0757,-85.28826,,
1435,1435,CAMILLA DR AND DAHLIA ST,,35.05963,-85.20989,,
1441,1441,QUINTAS RD AND SHALLOWFORD RD,,35.0551,-85.19722,,
1442,1442,JERSEY PIKE AT WRIGLEYS,,35.05759,-85.199,,
1443,1443,JERSEY PIKE AT FARLEY - SATHERS CANDY,,35.06075,-85.19724,,
1448,1448,VINE ST AT UTC ATHLETIC TRAINING FACILITY,,35.04856,-85.30197,,
1449,1449,PALMETTO ST AT ADMINISTRATION BUILDING,,35.04739,-85.29381,,
1458,1458,MANNING ST AND MAY ST,,35.06599,-85.3119,,
1459,1459,MARKET ST AT SHUTTLE PARK SOUTH,,35.03799,-85.30753,,
1460,1460,BROAD ST AND MAIN ST,,35.03754,-85.31104,,
1461,1461,MAIN ST AND MARKET ST,,35.03615,-85.30713,,
1462,1462,13TH ST AND MARKET ST,,35.03659,-85.30727,,
1465,1465,LEE HWY AT CHATTANOOGA STATE EAST,,35.05011,-85.15362,,
1466,1466,LEE HWY AND STANDIFER GAP,,35.0521,-85.15003,,
1468,1468,LEE HWY AND TYNER RD,,35.05667,-85.14076,,
1469,1469,STANDIFER PLACE AT HEALTH CENTER,,35.05475,-85.13394,,
1470,1470,LEE HWY AND TYNER RD,,35.05676,-85.14056,,
1471,1471,LEE HWY AT DOLLAR GENERAL,,35.05357,-85.14744,,
1472,1472,LEE HWY AT MURMAID MATTRESS,,35.05031,-85.15383,,
1473,1473,LEE HWY AND MCCUTCHEON RD,,35.04751,-85.15833,,
1474,1474,KING ST AND M.L. KING BLVD,,35.04451,-85.30502,,
1475,1475,HOUSTON ST AND M.L. KING BLVD,,35.04453,-85.30564,,
1477,1477,JUBILEE DR AND LEE HWY,,35.01783,-85.2058,,
1478,1478,EASTGATE LOOP AT CONVERGYS,,35.0059,-85.21339,,
1482,1482,LEE HWY AND MCCUTCHEON RD,,35.04733,-85.15837,,
1483,1483,BRAINERD RD AT APPLEBEES,,35.01075,-85.21666,,
1485,1485,OVERNITE DR AND SHALLOWFORD RD,,35.04302,-85.15737,,
1486,1486,49TH ST AND JEFFERY LN,,34.99182,-85.30576,,
1487,1487,21ST ST AND MARKET ST,,35.03081,-85.3088,,
1488,1488,37TH ST AND TENNESSEE AVE,,35.01266,-85.32595,,
1489,1489,GERMANTOWN RD AND ROGERS RD,,35.03022,-85.24309,,
1490,1490,TUNNEL BLVD AND WILCOX BLVD,,35.04675,-85.2374,,
1492,1492,CREST RD AND GREENWOOD RD,,35.0641,-85.24088,,
1493,1493,TUNNEL BLVD AND WILDWOOD ST,,35.05595,-85.23213,,
1494,1494,GERMANTOWN RD AND TERRELL ST,,35.03253,-85.24195,,
1496,1496,MAIN ST AND MORNINGSIDE DR,,35.02701,-85.28283,,
1498,1498,46TH ST AND DODDS AVE,,34.98984,-85.28731,,
1499,1499,MAIN ST AND MARKET ST,,35.03597,-85.30691,,
1501,1501,41ST ST AND DODDS AVE,,34.99534,-85.28428,,
1502,1502,28TH ST AND DODDS AVE,,35.00922,-85.27739,,
1503,1503,21ST ST AND DODDS AVE,,35.01652,-85.27312,,
1504,1504,BEECH ST AND MAIN ST,,35.02572,-85.27884,,
1505,1505,HOLTZCLAW AVE AND MAIN ST,,35.02889,-85.28772,,
1515,1515,ARLINGTON AVE AND WILCOX BLVD,,35.05231,-85.25876,,
1516,1516,LILLIAN LN AND WILCOX BLVD,,35.04687,-85.23511,,
1524,1524,TUNNEL BLVD AND WILCOX BLVD,,35.0471,-85.23715,,
1532,1532,BROAD ST AT READ HOUSE,,35.04625,-85.31031,,
1535,1535,10TH ST AND BROAD ST,,35.0446,-85.31025,,
1537,1537,4TH ST AND BROAD ST,,35.05203,-85.31082,,
1538,1538,CARTER ST AT DAYS INN,,35.04464,-85.31231,,
1539,1539,10TH ST AT LIBRARY,,35.04479,-85.3113,,
1545,1545,BRAINERD RD AT LABOR READY TEMP AGENCY,,35.02603,-85.25086,,
1547,1547,FOXWOOD PL AND WILCOX BLVD,,35.04821,-85.24182,,
1548,1548,23RD ST AND LYERLY ST,,35.01688,-85.27698,,
1550,1550,HOLTZCLAW AVE AT CHATTANOOGA HOUSING AUTHORITY,,35.04905,-85.27693,,
1551,1551,BRAINERD RD AND GERMANTOWN RD (CAR WASH),,35.02503,-85.24605,,
1555,1555,6TH ST AND MARKET ST,,35.04883,-85.30955,,
1556,1556,19TH ST AND DODDS AVE,,35.01799,-85.27216,,
1557,1557,14TH ST AND MARKET ST,,35.03858,-85.30756,,
1558,1558,HAWTHORNE ST AND MAIN ST,,35.02671,-85.28197,,
1559,1559,48TH ST AND DODDS AVE,,34.98783,-85.28834,,
1560,1560,MARKET ST AT WAREHOUSE ROW,,35.04288,-85.3091,,
1565,1565,SHUTTLE PARK NORTH,,35.05407,-85.31144,,
1566,1566,SHUTTLE PARK NORTH,,35.05403,-85.31147,,
1567,1567,10TH ST AT WHITESIDE FAITH MANOR,,35.04076,-85.2981,,
1569,1569,8TH ST AND UNIVERSITY ST,,35.04468,-85.30096,,
1570,1570,HOUSTON ST AND VINE ST,,35.04894,-85.30298,,
1571,1571,5TH ST AND PALMETTO ST,,35.04729,-85.29465,,
1573,1573,AMNICOLA HWY AT RIVERWALK PARK,,35.09303,-85.25625,,
1575,1575,HOLTZCLAW AVE AT CIRCLE,,35.04721,-85.27798,,
1577,1577,8TH ST AND PINE ST,,35.04716,-85.31262,,
1578,1578,LEE HWY AT VFW,,35.0274,-85.19058,,
1579,1579,7TH ST AND MARKET ST,,35.04812,-85.30955,,
1581,1581,33RD ST AT CHATTEM,,35.01745,-85.32168,,
1582,1582,BROAD ST (LEE HWY) AT POPEYES,,35.0161,-85.32301,,
1583,1583,3RD ST AND ORCHARD KNOB AVE,,35.04115,-85.27196,,
1584,1584,BLACKFORD ST AND ORCHARD KNOB AVE,,35.04261,-85.27118,,
1589,1589,6TH ST AND MARKET ST,,35.04932,-85.3095,,
1591,1591,3RD ST AND PALMETTO ST,,35.04858,-85.29319,,
1592,1592,23RD ST AND POLK ST,,35.02416,-85.29696,,
1593,1593,CITICO AVE AND GLENWOOD DR,,35.04162,-85.25832,,
1595,1595,2ND ST AND MARKET ST,,35.0547,-85.3096,,
1596,1596,FRAZIER AVE AND TREMONT ST,,35.06181,-85.3051,,
1597,1597,FRAZIER AVE AND TAMPA ST,,35.06134,-85.30392,,
1598,1598,4TH ST AND BROAD ST,,35.05218,-85.31055,,
1609,1609,CAMILLA DR AND JASMINE ST,,35.05951,-85.21184,,
1611,1611,5TH ST AT HOLT HALL,,35.04775,-85.29604,,
1612,1612,WILCOX BLVD AT CONOCO,,35.04729,-85.23785,,
1655,1655,SHUTTLE PARK NORTHSHORE GARAGE,,35.06249,-85.30494,,
1659,1659,DEE DR AND GREENWOOD RD,,35.05428,-85.24077,,
1660,1660,GREENWOOD RD AND WILCOX BLVD,,35.04813,-85.24301,,
1661,1661,GREYHOUND BUS LINES,,35.03222,-85.19465,,
1662,1662,AIRPORT RD AND PROVENCE ST,,35.02581,-85.19682,,
1663,1663,AIRPORT RD AND PINELAWN DR,,35.02385,-85.19786,,
1664,1664,AIRPORT RD AND LEE HWY,,35.02254,-85.19854,,
1665,1665,CHICKAMAUGA RD AND FRIAR RD,,35.02028,-85.19973,,
1666,1666,CENTRAL DR AND FRIAR RD,,35.01926,-85.19733,,
1667,1667,CENTRAL DR AND NELSON DR,,35.0206,-85.19647,,
1668,1668,CHICKAMAUGA RD AND NELSON DR,,35.0216,-85.19887,,
1669,1669,AIRPORT RD AND LEE HWY,,35.02292,-85.19824,,
1670,1670,AIRPORT RD AND PROVENCE ST,,35.02577,-85.19678,,
1671,1671,GREYHOUND BUS LINES,,35.0323,-85.19455,,
1672,1672,SHEPHERD RD AND VANCE RD,,35.03692,-85.19078,,
1683,1683,38TH ST AND TENNESSEE AVE,,35.01071,-85.32779,,
1684,1684,BROAD ST (LEE HWY) AND TENNESSEE AVE,,35.01431,-85.32506,,
1686,1686,AQUARIUM WAY AND MARKET ST,,35.05465,-85.30959,,
1688,1688,MANNING ST AND SPEARS AVE,,35.06585,-85.31018,,
1689,1689,MAY ST AT NORTH CHATTANOOGA RECREATION CENTER,,35.06667,-85.31198,,
1694,1694,CHEROKEE BLVD AND CHILHOWIE ST,,35.06758,-85.31553,,
1695,1695,BELL AVE AND CHILHOWIE ST,,35.06865,-85.31528,,
1696,1696,BELL AVE AND HARPER ST,,35.06848,-85.31314,,
1697,1697,BELL AVE AND MAY ST,,35.06845,-85.31193,,
1699,1699,CHEROKEE BLVD AND MANNING ST,,35.06586,-85.31323,,
1700,1700,AQUARIUM WAY AND MARKET ST,,35.05494,-85.30985,,
1701,1701,CHICKAMAUGA AVE AND GORDON AVE,,34.9841,-85.28679,,
1706,1706,50TH ST AND ROSSVILLE BLVD,,34.98551,-85.28711,,
1707,1707,49TH ST AND ROSSVILLE BLVD,,34.98637,-85.28761,,
1708,1708,48TH ST AND ROSSVILLE BLVD,,34.9876,-85.28845,,
1709,1709,CHATTANOOGA METROPOLITAN AIRPORT,,35.03832,-85.19574,,
1710,1710,STATE ST AT TENNESSEE-GEORGIA STATE LINE,,34.98473,-85.28815,,
1713,1713,HOUSTON ST AND MARKET ST,,35.042,-85.30867,,
1715,1715,GUNBARREL RD AND IGOU GAP RD,,35.02708,-85.15733,,
1716,1716,CRANE ST AND GUNBARREL RD,,35.02375,-85.15914,,
1717,1717,GUNBARREL RD AT ERLANGER EAST PAVILLION,,35.02133,-85.16044,,
1718,1718,GUNBARREL RD AT PRIMROSE SCHOOL,,35.01995,-85.16119,,
1719,1719,APPLEGATE LN AND GUNBARREL RD,,35.01855,-85.16193,,
1721,1721,8TH ST AND MARKET ST,,35.04702,-85.30955,,
1722,1722,HOUSTON ST AND MARKET ST,,35.0424,-85.30898,,
1723,1723,OLIVE ST AND ROANOKE AVE,,35.05951,-85.26663,,
1724,1724,PORTLAND ST AND ROANOKE AVE,,35.05863,-85.26114,,
1725,1725,ROANOKE AVE AND SHERMAN ST,,35.05989,-85.26048,,
1726,1726,HARDY ST AND ROANOKE AVE,,35.0606,-85.26006,,
1727,1727,DODSON AVE AT HARDY ELEMENTARY SCHOOL,,35.06226,-85.25899,,
1728,1728,DODSON AVE AND GLASS ST,,35.06362,-85.25489,,
1729,1729,CHAMBERLAIN AVE AND GLASS ST,,35.06543,-85.24896,,